{ "stations": [
    {"id": "08865", "name": "Adams Harbour", "province": "British Columbia", "lat": 51.6833, "lon": -128.1},
    {"id": "08860", "name": "Addenbroke Island", "province": "British Columbia", "lat": 51.6, "lon": -127.8333},
    {"id": "08280", "name": "Alert Bay", "province": "British Columbia", "lat": 50.5833, "lon": -126.9333},
    {"id": "09448", "name": "Alice Arm", "province": "British Columbia", "lat": 55.4667, "lon": -129.5},
    {"id": "08488", "name": "Alison Sound", "province": "British Columbia", "lat": 51.1667, "lon": -126.9833},
    {"id": "09765", "name": "Atli Inlet", "province": "British Columbia", "lat": 52.7167, "lon": -131.5833},
    {"id": "08545", "name": "Bamfield", "province": "British Columbia", "lat": 48.8333, "lon": -125.1333},
    {"id": "09115", "name": "Barnard Harbour", "province": "British Columbia", "lat": 53.0667, "lon": -129.1167},
    {"id": "09082", "name": "Beauchemin Channel", "province": "British Columbia", "lat": 52.7833, "lon": -129.3},
    {"id": "07030", "name": "Becher Bay", "province": "British Columbia", "lat": 48.3333, "lon": -123.6},
    {"id": "07350", "name": "Bedwell Harbour", "province": "British Columbia", "lat": 48.75, "lon": -123.2333},
    {"id": "08482", "name": "Belize Inlet", "province": "British Columbia", "lat": 51.1167, "lon": -127.2667},
    {"id": "08976", "name": "Bella Bella", "province": "British Columbia", "lat": 52.1667, "lon": -128.1333},
    {"id": "08937", "name": "Bella Coola", "province": "British Columbia", "lat": 52.3833, "lon": -126.8},
    {"id": "08060", "name": "Big Bay", "province": "British Columbia", "lat": 50.4, "lon": -125.1333},
    {"id": "07865", "name": "Blind Bay", "province": "British Columbia", "lat": 49.7167, "lon": -124.1833},
    {"id": "09165", "name": "Block Islands", "province": "British Columbia", "lat": 53.15, "lon": -129.7333},
    {"id": "07875", "name": "Blubber Bay", "province": "British Columbia", "lat": 49.8, "lon": -124.6167},
    {"id": "07480", "name": "Boat Harbour", "province": "British Columbia", "lat": 49.1, "lon": -123.8},
    {"id": "07843", "name": "Boom Islet", "province": "British Columbia", "lat": 49.75, "lon": -123.9},
    {"id": "08812", "name": "Boswell Inlet", "province": "British Columbia", "lat": 51.3667, "lon": -127.4667},
    {"id": "08110", "name": "Brown Bay", "province": "British Columbia", "lat": 50.1667, "lon": -125.3667},
    {"id": "09333", "name": "Brundige Inlet", "province": "British Columbia", "lat": 54.6167, "lon": -130.85},
    {"id": "08074", "name": "Campbell River", "province": "British Columbia", "lat": 50.05, "lon": -125.25},
    {"id": "08790", "name": "Cape Scott", "province": "British Columbia", "lat": 50.7833, "lon": -128.4333},
    {"id": "09502", "name": "Cape St. James", "province": "British Columbia", "lat": 51.9333, "lon": -131.0167},
    {"id": "08325", "name": "Cedar Island", "province": "British Columbia", "lat": 50.6567, "lon": -126.675},
    {"id": "08015", "name": "Channel Island", "province": "British Columbia", "lat": 50.3167, "lon": -124.75},
    {"id": "08180", "name": "Chatham Point", "province": "British Columbia", "lat": 50.3333, "lon": -125.45},
    {"id": "07455", "name": "Chemainus", "province": "British Columbia", "lat": 48.9333, "lon": -123.7167},
    {"id": "08765", "name": "Coal Harbour", "province": "British Columbia", "lat": 50.6, "lon": -127.5833},
    {"id": "07965", "name": "Comox", "province": "British Columbia", "lat": 49.6667, "lon": -124.9333},
    {"id": "09724", "name": "Copper Islands", "province": "British Columbia", "lat": 52.3667, "lon": -131.1833},
    {"id": "08150", "name": "Cordero Islands", "province": "British Columbia", "lat": 50.45, "lon": -125.5},
    {"id": "07310", "name": "Cowichan Bay", "province": "British Columbia", "lat": 48.7333, "lon": -123.6167},
    {"id": "07450", "name": "Crofton", "province": "British Columbia", "lat": 48.8667, "lon": -123.65},
    {"id": "08630", "name": "Cypress Bay", "province": "British Columbia", "lat": 49.2667, "lon": -125.8667},
    {"id": "09635", "name": "Dawson Harbour", "province": "British Columbia", "lat": 53.1667, "lon": -132.4667},
    {"id": "07955", "name": "Denman Island", "province": "British Columbia", "lat": 49.5333, "lon": -124.8167},
    {"id": "07535", "name": "Dionisio Point", "province": "British Columbia", "lat": 49.0167, "lon": -123.5667},
    {"id": "08868", "name": "Edward Channel", "province": "British Columbia", "lat": 51.7833, "lon": -128.0667},
    {"id": "08585", "name": "Effingham Bay", "province": "British Columbia", "lat": 48.8833, "lon": -125.3167},
    {"id": "09961", "name": "Egeria Bay", "province": "British Columbia", "lat": 54.2167, "lon": -132.9667},
    {"id": "08805", "name": "Egg Island", "province": "British Columbia", "lat": 51.25, "lon": -127.8333},
    {"id": "07110", "name": "Esquimalt", "province": "British Columbia", "lat": 48.4333, "lon": -123.4333},
    {"id": "07109", "name": "Esquimalt Harbour", "province": "British Columbia", "lat": 48.4333, "lon": -123.45},
    {"id": "07982", "name": "False Bay", "province": "British Columbia", "lat": 49.4833, "lon": -124.35},
    {"id": "07284", "name": "Finlayson Arm", "province": "British Columbia", "lat": 48.5, "lon": -123.55},
    {"id": "07140", "name": "Finnerty Cove", "province": "British Columbia", "lat": 48.4667, "lon": -123.3},
    {"id": "08958", "name": "Forit Bay", "province": "British Columbia", "lat": 52.1667, "lon": -127.9167},
    {"id": "08565", "name": "Franklin River", "province": "British Columbia", "lat": 49.1, "lon": -124.8167},
    {"id": "08458", "name": "Frederick Sound", "province": "British Columbia", "lat": 51.0333, "lon": -126.7333},
    {"id": "07330", "name": "Fulford Harbour", "province": "British Columbia", "lat": 48.7667, "lon": -123.45},
    {"id": "07407", "name": "Ganges Harbour", "province": "British Columbia", "lat": 48.85, "lon": -123.5},
    {"id": "07525", "name": "Georgina Point", "province": "British Columbia", "lat": 48.8667, "lon": -123.3},
    {"id": "08996", "name": "Gerald Point", "province": "British Columbia", "lat": 52.4333, "lon": -128.0833},
    {"id": "07820", "name": "Gibsons", "province": "British Columbia", "lat": 49.4, "lon": -123.5},
    {"id": "09105", "name": "Gillen Harbour", "province": "British Columbia", "lat": 52.9667, "lon": -129.6},
    {"id": "08650", "name": "Gold River", "province": "British Columbia", "lat": 49.6833, "lon": -126.1333},
    {"id": "09512", "name": "Gordon Islands", "province": "British Columbia", "lat": 52.1, "lon": -131.1333},
    {"id": "08037", "name": "Gorge Harbour", "province": "British Columbia", "lat": 50.1, "lon": -124.9833},
    {"id": "08906", "name": "Gosling Island", "province": "British Columbia", "lat": 51.9, "lon": -128.45},
    {"id": "09443", "name": "Granby Bay", "province": "British Columbia", "lat": 55.4167, "lon": -129.8167},
    {"id": "09020", "name": "Griffin Passage", "province": "British Columbia", "lat": 52.7667, "lon": -128.35},
    {"id": "09230", "name": "Griffith Harbour", "province": "British Columbia", "lat": 53.6, "lon": -130.55},
    {"id": "07830", "name": "Halfmoon Bay", "province": "British Columbia", "lat": 49.5167, "lon": -123.9167},
    {"id": "09130", "name": "Hartley Bay", "province": "British Columbia", "lat": 53.4167, "lon": -129.25},
    {"id": "09708", "name": "Heater Harbour", "province": "British Columbia", "lat": 52.1203, "lon": -131.0333},
    {"id": "09958", "name": "Henslung Cove", "province": "British Columbia", "lat": 54.191, "lon": -133.002},
    {"id": "08632", "name": "Herbert Inlet", "province": "British Columbia", "lat": 49.35, "lon": -125.9833},
    {"id": "08035", "name": "Heriot Bay", "province": "British Columbia", "lat": 50.1, "lon": -125.2167},
    {"id": "09056", "name": "Higgings Passage", "province": "British Columbia", "lat": 52.4833, "lon": -128.7667},
    {"id": "07360", "name": "Hope Bay", "province": "British Columbia", "lat": 48.8, "lon": -123.2833},
    {"id": "07953", "name": "Hornby Island", "province": "British Columbia", "lat": 49.5, "lon": -124.6833},
    {"id": "09511", "name": "Houston Stewart Channel", "province": "British Columbia", "lat": 52.0833, "lon": -131.1167},
    {"id": "09570", "name": "Hunger Harbour", "province": "British Columbia", "lat": 52.75, "lon": -132.0333},
    {"id": "08736", "name": "Hunt Islets", "province": "British Columbia", "lat": 50.4667, "lon": -128.0333},
    {"id": "07836", "name": "Irvines Landing", "province": "British Columbia", "lat": 49.6333, "lon": -124.05},
    {"id": "08384", "name": "Jennis Bay", "province": "British Columbia", "lat": 50.9167, "lon": -127.0333},
    {"id": "08371", "name": "Jessie Point", "province": "British Columbia", "lat": 50.95, "lon": -126.8167},
    {"id": "09927", "name": "Juskatla", "province": "British Columbia", "lat": 53.6333, "lon": -132.3167},
    {"id": "08215", "name": "Kelsey Bay", "province": "British Columbia", "lat": 50.4, "lon": -125.9667},
    {"id": "09150", "name": "Kemano Bay", "province": "British Columbia", "lat": 53.4833, "lon": -128.1167},
    {"id": "08623", "name": "Kennedy Cove", "province": "British Columbia", "lat": 49.1333, "lon": -125.6667},
    {"id": "09422", "name": "Kincolith", "province": "British Columbia", "lat": 55, "lon": -129.9833},
    {"id": "08348", "name": "KingCome Inlet", "province": "British Columbia", "lat": 50.9872, "lon": -126.1994},
    {"id": "09140", "name": "Kitimat", "province": "British Columbia", "lat": 53.9833, "lon": -128.7167},
    {"id": "09242", "name": "Kitkatla Islands", "province": "British Columbia", "lat": 53.8, "lon": -130.35},
    {"id": "09035", "name": "Klemtu", "province": "British Columbia", "lat": 52.6, "lon": -128.5167},
    {"id": "08195", "name": "Knox Bay", "province": "British Columbia", "lat": 50.3833, "lon": -125.6167},
    {"id": "08347", "name": "Kwatsi Bay", "province": "British Columbia", "lat": 50.8647, "lon": -126.2494},
    {"id": "08978", "name": "Kynumpt Harbour", "province": "British Columbia", "lat": 52.2083, "lon": -128.1617},
    {"id": "08710", "name": "Kyuquot", "province": "British Columbia", "lat": 50.0333, "lon": -127.3833},
    {"id": "07460", "name": "Ladysmith", "province": "British Columbia", "lat": 48.9833, "lon": -123.8},
    {"id": "08258", "name": "Lagoon Cove", "province": "British Columbia", "lat": 50.6, "lon": -126.3167},
    {"id": "09964", "name": "Langara Point", "province": "British Columbia", "lat": 54.25, "lon": -133.0333},
    {"id": "09312", "name": "Lawyer Islands", "province": "British Columbia", "lat": 54.1, "lon": -130.3333},
    {"id": "08810", "name": "Leroy Bay", "province": "British Columbia", "lat": 51.2667, "lon": -127.6833},
    {"id": "07993", "name": "Little River", "province": "British Columbia", "lat": 49.7333, "lon": -124.9167},
    {"id": "09195", "name": "Lowe Inlet", "province": "British Columbia", "lat": 53.5667, "lon": -129.5833},
    {"id": "07885", "name": "Lund", "province": "British Columbia", "lat": 49.9833, "lon": -124.7667},
    {"id": "08756", "name": "Makwazniht Island", "province": "British Columbia", "lat": 50.55, "lon": -127.55},
    {"id": "07315", "name": "Maple Bay", "province": "British Columbia", "lat": 48.8167, "lon": -123.6167},
    {"id": "09910", "name": "Masset", "province": "British Columbia", "lat": 54.0167, "lon": -132.15},
    {"id": "09790", "name": "McCoy Cove", "province": "British Columbia", "lat": 53.0333, "lon": -131.6667},
    {"id": "09077", "name": "McKenney Islands", "province": "British Columbia", "lat": 52.65, "lon": -129.4667},
    {"id": "08476", "name": "Mereworth Sound", "province": "British Columbia", "lat": 51.1833, "lon": -127.4167},
    {"id": "09063", "name": "Milne Island", "province": "British Columbia", "lat": 52.6167, "lon": -128.7667},
    {"id": "07895", "name": "Mitlenatch Island", "province": "British Columbia", "lat": 49.95, "lon": -125},
    {"id": "09325", "name": "Moffatt Islands", "province": "British Columbia", "lat": 54.45, "lon": -130.7333},
    {"id": "07420", "name": "Montague Harbour", "province": "British Columbia", "lat": 48.8833, "lon": -123.3833},
    {"id": "08313", "name": "Montagu Point", "province": "British Columbia", "lat": 50.6333, "lon": -126.2167},
    {"id": "08870", "name": "Namu", "province": "British Columbia", "lat": 51.8667, "lon": -127.8667},
    {"id": "07917", "name": "Nanaimo", "province": "British Columbia", "lat": 49.1667, "lon": -123.9333},
    {"id": "07930", "name": "Nanoose Bay", "province": "British Columbia", "lat": 49.2667, "lon": -124.1333},
    {"id": "07345", "name": "Narvaez Bay", "province": "British Columbia", "lat": 48.7667, "lon": -123.1},
    {"id": "09667", "name": "Nesto Inlet", "province": "British Columbia", "lat": 53.55, "lon": -132.9167},
    {"id": "07654", "name": "New Westminster", "province": "British Columbia", "lat": 49.1833, "lon": -122.9},
    {"id": "07938", "name": "Northwest Bay", "province": "British Columbia", "lat": 49.3, "lon": -124.2},
    {"id": "08464", "name": "Nugent Sound", "province": "British Columbia", "lat": 51.0833, "lon": -127.25},
    {"id": "07130", "name": "Oak Bay", "province": "British Columbia", "lat": 48.4167, "lon": -123.3},
    {"id": "08962", "name": "Ocean Falls", "province": "British Columbia", "lat": 52.35, "lon": -127.7},
    {"id": "08065", "name": "Orford Bay", "province": "British Columbia", "lat": 50.6, "lon": -124.8667},
    {"id": "08120", "name": "Owen Bay", "province": "British Columbia", "lat": 50.3167, "lon": -125.2167},
    {"id": "09775", "name": "Pacofi", "province": "British Columbia", "lat": 52.8333, "lon": -131.8833},
    {"id": "07277", "name": "Patricia Bay", "province": "British Columbia", "lat": 48.65, "lon": -123.45},
    {"id": "07080", "name": "Pedder Bay", "province": "British Columbia", "lat": 48.3333, "lon": -123.55},
    {"id": "07795", "name": "Point Atkinson", "province": "British Columbia", "lat": 49.3333, "lon": -123.25},
    {"id": "07852", "name": "Porpoise Bay", "province": "British Columbia", "lat": 49.4833, "lon": -123.7667},
    {"id": "07125", "name": "Portage Inlet", "province": "British Columbia", "lat": 48.4572, "lon": -123.4157},
    {"id": "08575", "name": "Port Alberni", "province": "British Columbia", "lat": 49.2333, "lon": -124.8167},
    {"id": "08750", "name": "Port Alice", "province": "British Columbia", "lat": 50.3833, "lon": -127.45},
    {"id": "09005", "name": "Port Blackney", "province": "British Columbia", "lat": 52.3167, "lon": -128.35},
    {"id": "09920", "name": "Port Clements", "province": "British Columbia", "lat": 53.6833, "lon": -132.1833},
    {"id": "09342", "name": "Port Edward", "province": "British Columbia", "lat": 54.2333, "lon": -130.3},
    {"id": "08408", "name": "Port Hardy", "province": "British Columbia", "lat": 50.7167, "lon": -127.4833},
    {"id": "08250", "name": "Port Harvey", "province": "British Columbia", "lat": 50.5667, "lon": -126.2667},
    {"id": "08290", "name": "Port McNeill", "province": "British Columbia", "lat": 50.5833, "lon": -127.1},
    {"id": "07755", "name": "Port Moody", "province": "British Columbia", "lat": 49.2833, "lon": -122.8667},
    {"id": "08245", "name": "Port Neville", "province": "British Columbia", "lat": 50.5, "lon": -126.0833},
    {"id": "08525", "name": "Port Renfrew", "province": "British Columbia", "lat": 48.55, "lon": -124.4167},
    {"id": "09390", "name": "Port Simpson", "province": "British Columbia", "lat": 54.5667, "lon": -130.4333},
    {"id": "07880", "name": "Powell River", "province": "British Columbia", "lat": 49.8667, "lon": -124.55},
    {"id": "07471", "name": "Preedy Harbour", "province": "British Columbia", "lat": 48.9833, "lon": -123.6833},
    {"id": "09058", "name": "Price Island", "province": "British Columbia", "lat": 52.2783, "lon": -128.675},
    {"id": "08008", "name": "Prideaux Haven", "province": "British Columbia", "lat": 50.15, "lon": -124.6667},
    {"id": "09354", "name": "Prince Rupert", "province": "British Columbia", "lat": 54.3167, "lon": -130.3167},
    {"id": "09315", "name": "Qlawdzeet Anchorage", "province": "British Columbia", "lat": 54.2, "lon": -130.7667},
    {"id": "09850", "name": "Queen Charlotte", "province": "British Columbia", "lat": 53.25, "lon": -132.0667},
    {"id": "09418", "name": "Ranger Islet", "province": "British Columbia", "lat": 54.8333, "lon": -130.1667},
    {"id": "08394", "name": "Raynor Group", "province": "British Columbia", "lat": 50.8833, "lon": -127.25},
    {"id": "08025", "name": "Redonda Bay", "province": "British Columbia", "lat": 50.25, "lon": -124.95},
    {"id": "09306", "name": "Refuge Bay", "province": "British Columbia", "lat": 54.05, "lon": -130.5333},
    {"id": "08637", "name": "Riley Cove", "province": "British Columbia", "lat": 49.3833, "lon": -126.2333},
    {"id": "08645", "name": "Saavedra Islands", "province": "British Columbia", "lat": 49.6167, "lon": -126.6167},
    {"id": "07868", "name": "Saltery bay", "province": "British Columbia", "lat": 49.7833, "lon": -124.1833},
    {"id": "07594", "name": "Sand Heads", "province": "British Columbia", "lat": 49.1, "lon": -123.3},
    {"id": "09250", "name": "Seabreeze Point", "province": "British Columbia", "lat": 53.9833, "lon": -130.1833},
    {"id": "08105", "name": "Seymous Narrows", "province": "British Columbia", "lat": 50.1333, "lon": -125.35},
    {"id": "07013", "name": "Sheringham Point", "province": "British Columbia", "lat": 48.3833, "lon": -123.9167},
    {"id": "08145", "name": "Shoal Bay", "province": "British Columbia", "lat": 50.4667, "lon": -125.3667},
    {"id": "07260", "name": "Sidney", "province": "British Columbia", "lat": 48.65, "lon": -123.4},
    {"id": "07550", "name": "Silva Bay", "province": "British Columbia", "lat": 49.15, "lon": -123.7},
    {"id": "08311", "name": "Siwash Bay", "province": "British Columbia", "lat": 50.6833, "lon": -125.7667},
    {"id": "09067", "name": "Smithers Island", "province": "British Columbia", "lat": 52.75, "lon": -129.0667},
    {"id": "08814", "name": "Smith Inlet", "province": "British Columbia", "lat": 51.3333, "lon": -127.1833},
    {"id": "07020", "name": "Sooke", "province": "British Columbia", "lat": 48.3667, "lon": -123.7333},
    {"id": "07024", "name": "Sooke Basin", "province": "British Columbia", "lat": 48.3667, "lon": -123.6833},
    {"id": "08912", "name": "Spider Island", "province": "British Columbia", "lat": 51.85, "lon": -128.2333},
    {"id": "07811", "name": "Squamish", "province": "British Columbia", "lat": 49.7, "lon": -123.15},
    {"id": "07607", "name": "Steveston", "province": "British Columbia", "lat": 49.1167, "lon": -123.2},
    {"id": "09475", "name": "Stewart", "province": "British Columbia", "lat": 55.9167, "lon": -130.0167},
    {"id": "08588", "name": "Stopper Islands", "province": "British Columbia", "lat": 49, "lon": -125.35},
    {"id": "08917", "name": "Stryker Island", "province": "British Columbia", "lat": 52.0925, "lon": -128.3475},
    {"id": "08379", "name": "Stuart Narrows", "province": "British Columbia", "lat": 50.9, "lon": -126.9},
    {"id": "08364", "name": "Sullivan Bay", "province": "British Columbia", "lat": 50.8833, "lon": -126.8333},
    {"id": "08634", "name": "Sulphur Passage", "province": "British Columbia", "lat": 49.4, "lon": -126.0667},
    {"id": "08340", "name": "Sunday Harbour", "province": "British Columbia", "lat": 50.7167, "lon": -126.7},
    {"id": "09090", "name": "Surf Inlet", "province": "British Columbia", "lat": 53.0167, "lon": -128.9},
    {"id": "08045", "name": "Surge Narrows", "province": "British Columbia", "lat": 50.2333, "lon": -125.1167},
    {"id": "08615", "name": "Tofino", "province": "British Columbia", "lat": 49.15, "lon": -125.9167},
    {"id": "09625", "name": "Trounce Inlet", "province": "British Columbia", "lat": 53.15, "lon": -132.3167},
    {"id": "08981", "name": "Troup Passage", "province": "British Columbia", "lat": 52.25, "lon": -128.0333},
    {"id": "07590", "name": "Tsawwassen", "province": "British Columbia", "lat": 49, "lon": -123.1333},
    {"id": "07510", "name": "Tumbo Channel", "province": "British Columbia", "lat": 48.8, "lon": -123.1167},
    {"id": "07892", "name": "Twin Islands", "province": "British Columbia", "lat": 50.0333, "lon": -124.9333},
    {"id": "08595", "name": "Ucluelet", "province": "British Columbia", "lat": 48.95, "lon": -125.55},
    {"id": "07735", "name": "Vancouver", "province": "British Columbia", "lat": 49.2833, "lon": -123.1167},
    {"id": "07120", "name": "Victoria", "province": "British Columbia", "lat": 48.4247, "lon": -123.3707},
    {"id": "07414", "name": "Village Bay", "province": "British Columbia", "lat": 48.85, "lon": -123.3167},
    {"id": "08069", "name": "Waddington Harbour", "province": "British Columbia", "lat": 50.8667, "lon": -124.8333},
    {"id": "08840", "name": "Wadhams", "province": "British Columbia", "lat": 51.5167, "lon": -127.5167},
    {"id": "08426", "name": "Walker Group", "province": "British Columbia", "lat": 50.9, "lon": -127.5333},
    {"id": "08626", "name": "Warn Bay", "province": "British Columbia", "lat": 49.2333, "lon": -125.75},
    {"id": "07990", "name": "Welcome Bay", "province": "British Columbia", "lat": 49.7, "lon": -124.55},
    {"id": "09305", "name": "Welcome Harbour", "province": "British Columbia", "lat": 54.0167, "lon": -130.6167},
    {"id": "07532", "name": "Whaler Bay", "province": "British Columbia", "lat": 48.8833, "lon": -123.3333},
    {"id": "08038", "name": "Whaletown Bay", "province": "British Columbia", "lat": 50.1, "lon": -125.05},
    {"id": "07577", "name": "White Rock", "province": "British Columbia", "lat": 49.0167, "lon": -122.8},
    {"id": "09940", "name": "Wiah Point", "province": "British Columbia", "lat": 54.1167, "lon": -132.3167},
    {"id": "07935", "name": "Winchelsea Islands", "province": "British Columbia", "lat": 49.3, "lon": -124.0833},
    {"id": "08735", "name": "Winter Harbour", "province": "British Columbia", "lat": 50.5167, "lon": -128.0333},
    {"id": "08670", "name": "Zeballos", "province": "British Columbia", "lat": 49.9833, "lon": -126.85},
    {"id": "05010", "name": "Churchill", "province": "Manitoba", "lat": 58.7833, "lon": -94.2},
    {"id": "04980", "name": "Port Nelson", "province": "Manitoba", "lat": 57, "lon": -92.5},
    {"id": "00030", "name": "Back Bay", "province": "New Brunswick", "lat": 45.05, "lon": -66.8667},
    {"id": "02130", "name": "Bathurst", "province": "New Brunswick", "lat": 47.6167, "lon": -65.65},
    {"id": "02028", "name": "Bay du Vin", "province": "New Brunswick", "lat": 47.05, "lon": -65.1667},
    {"id": "00044", "name": "Beaver Harbour", "province": "New Brunswick", "lat": 45.0667, "lon": -66.7333},
    {"id": "02145", "name": "Belledune", "province": "New Brunswick", "lat": 47.9, "lon": -65.85},
    {"id": "00042", "name": "Blacks Harbour", "province": "New Brunswick", "lat": 45.05, "lon": -66.8},
    {"id": "02025", "name": "Burnt Church", "province": "New Brunswick", "lat": 47.2, "lon": -65.1333},
    {"id": "00103", "name": "Cambridge Narrows", "province": "New Brunswick", "lat": 45.8333, "lon": -65.95},
    {"id": "02175", "name": "Campbellton", "province": "New Brunswick", "lat": 48.0167, "lon": -66.6667},
    {"id": "01810", "name": "Cap de Caissie", "province": "New Brunswick", "lat": 46.3333, "lon": -64.5167},
    {"id": "00150", "name": "Cape Enrage", "province": "New Brunswick", "lat": 45.6, "lon": -64.7833},
    {"id": "01790", "name": "Cape Tormentine", "province": "New Brunswick", "lat": 46.1333, "lon": -63.7667},
    {"id": "01800", "name": "Cap Pelé", "province": "New Brunswick", "lat": 46.2333, "lon": -64.2333},
    {"id": "02110", "name": "Caraquet", "province": "New Brunswick", "lat": 47.8, "lon": -64.9333},
    {"id": "02035", "name": "Chatham", "province": "New Brunswick", "lat": 47.0333, "lon": -65.4667},
    {"id": "01812", "name": "Cocagne Harbour", "province": "New Brunswick", "lat": 46.3333, "lon": -64.6167},
    {"id": "00008", "name": "Coffin Point", "province": "New Brunswick", "lat": 44.8667, "lon": -67.1333},
    {"id": "02014", "name": "Cormoran", "province": "New Brunswick", "lat": 47.1167, "lon": -65.15},
    {"id": "00004", "name": "Cutler", "province": "New Brunswick", "lat": 44.65, "lon": -67.2167},
    {"id": "02165", "name": "Dalhousie", "province": "New Brunswick", "lat": 48.0667, "lon": -66.3833},
    {"id": "00046", "name": "Dipper Harbour West", "province": "New Brunswick", "lat": 45.1, "lon": -66.4333},
    {"id": "00024", "name": "Eastport, Maine", "province": "New Brunswick", "lat": 44.9, "lon": -66.9833},
    {"id": "00021", "name": "East Quoddy Head", "province": "New Brunswick", "lat": 44.9667, "lon": -66.9},
    {"id": "02000", "name": "Escuminac", "province": "New Brunswick", "lat": 47.0667, "lon": -64.8833},
    {"id": "00098", "name": "Evandale", "province": "New Brunswick", "lat": 45.5833, "lon": -66.0333},
    {"id": "00025", "name": "Fairehaven", "province": "New Brunswick", "lat": 44.9667, "lon": -67.0167},
    {"id": "02012", "name": "Fox Island", "province": "New Brunswick", "lat": 47.1167, "lon": -65.05},
    {"id": "00120", "name": "Fredericton", "province": "New Brunswick", "lat": 45.9667, "lon": -66.65},
    {"id": "00007", "name": "Garnet Rock", "province": "New Brunswick", "lat": 44.5167, "lon": -66.7833},
    {"id": "00009", "name": "Garnet Point", "province": "New Brunswick", "lat": 44.9167, "lon": -67.1167},
    {"id": "02034", "name": "Gordon Point", "province": "New Brunswick", "lat": 47.0833, "lon": -65.4},
    {"id": "00160", "name": "Grindstone Island", "province": "New Brunswick", "lat": 45.7167, "lon": -64.6167},
    {"id": "00097", "name": "Hatfield Point", "province": "New Brunswick", "lat": 45.65, "lon": -65.8667},
    {"id": "00140", "name": "Herring Cove", "province": "New Brunswick", "lat": 45.5667, "lon": -64.9667},
    {"id": "00170", "name": "Hopewell Cape", "province": "New Brunswick", "lat": 45.85, "lon": -64.5833},
    {"id": "00033", "name": "Letang Harbour", "province": "New Brunswick", "lat": 45.0833, "lon": -66.7833},
    {"id": "02033", "name": "Loggieville", "province": "New Brunswick", "lat": 47.0667, "lon": -65.3833},
    {"id": "00041", "name": "Long Island", "province": "New Brunswick", "lat": 45.15, "lon": -66.9667},
    {"id": "00055", "name": "Lorneville", "province": "New Brunswick", "lat": 45.2, "lon": -66.15},
    {"id": "02020", "name": "Lower Neguac", "province": "New Brunswick", "lat": 47.2667, "lon": -65.0667},
    {"id": "00102", "name": "MacDonalds Point", "province": "New Brunswick", "lat": 45.7167, "lon": -66.05},
    {"id": "00029", "name": "Matthews Cove", "province": "New Brunswick", "lat": 45.05, "lon": -66.8667},
    {"id": "00028", "name": "McMaster Island", "province": "New Brunswick", "lat": 45.05, "lon": -66.9333},
    {"id": "02090", "name": "Miscou", "province": "New Brunswick", "lat": 47.9, "lon": -64.5833},
    {"id": "00175", "name": "Moncton", "province": "New Brunswick", "lat": 46.0833, "lon": -64.7667},
    {"id": "00053", "name": "Musquash Harbour", "province": "New Brunswick", "lat": 45.15, "lon": -66.25},
    {"id": "02022", "name": "Neguac", "province": "New Brunswick", "lat": 47.25, "lon": -65.0833},
    {"id": "02040", "name": "Newcastle", "province": "New Brunswick", "lat": 47, "lon": -65.5667},
    {"id": "00010", "name": "North Head", "province": "New Brunswick", "lat": 44.7667, "lon": -66.75},
    {"id": "00016", "name": "North Lubec", "province": "New Brunswick", "lat": 44.8667, "lon": -66.9833},
    {"id": "02030", "name": "Oak Point", "province": "New Brunswick", "lat": 47.1167, "lon": -65.2667},
    {"id": "00001", "name": "Outer Wood Island", "province": "New Brunswick", "lat": 44.6, "lon": -66.8},
    {"id": "00060", "name": "Partridge Island", "province": "New Brunswick", "lat": 45.2333, "lon": -66.05},
    {"id": "00190", "name": "Pecks Point", "province": "New Brunswick", "lat": 45.75, "lon": -64.4833},
    {"id": "01830", "name": "Pointe-Sapin", "province": "New Brunswick", "lat": 46.9833, "lon": -64.8167},
    {"id": "02010", "name": "Portage Island", "province": "New Brunswick", "lat": 47.1667, "lon": -65.05},
    {"id": "01785", "name": "Port Elgin", "province": "New Brunswick", "lat": 46.05, "lon": -64.0667},
    {"id": "00006", "name": "Portsmouth", "province": "New Brunswick", "lat": 43.0833, "lon": -70.7333},
    {"id": "00066", "name": "Reversing Falls", "province": "New Brunswick", "lat": 45.2617, "lon": -66.0883},
    {"id": "01827", "name": "Richibucto", "province": "New Brunswick", "lat": 46.6833, "lon": -64.8667},
    {"id": "01825", "name": "Richibucto Bar", "province": "New Brunswick", "lat": 46.7167, "lon": -64.7833},
    {"id": "01820", "name": "Richibucto Cape", "province": "New Brunswick", "lat": 46.65, "lon": -64.7},
    {"id": "02029", "name": "Robichaud Spit", "province": "New Brunswick", "lat": 47.1167, "lon": -65.25},
    {"id": "00085", "name": "Rothesay", "province": "New Brunswick", "lat": 45.4, "lon": -66},
   {"id": "00065", "name": "Saint John", "province": "New Brunswick", "lat": 45.2667, "lon": -66.0667},
    {"id": "01815", "name": "Saint-Thomas-de-Kent", "province": "New Brunswick", "lat": 46.45, "lon": -64.6333},
    {"id": "00005", "name": "Seal Cove", "province": "New Brunswick", "lat": 44.65, "lon": -66.85},
    {"id": "01805", "name": "Shediac Bay", "province": "New Brunswick", "lat": 46.25, "lon": -64.5333},
    {"id": "02071", "name": "Shippagan", "province": "New Brunswick", "lat": 47.75, "lon": -64.7},
    {"id": "02070", "name": "Shippegan Gully", "province": "New Brunswick", "lat": 47.7167, "lon": -64.6667},
    {"id": "01860", "name": "Skinner's Pond", "province": "New Brunswick", "lat": 46.95, "lon": -64.1167},
    {"id": "00014", "name": "South Lubec", "province": "New Brunswick", "lat": 44.8667, "lon": -66.9833},
    {"id": "00040", "name": "St. Andrews", "province": "New Brunswick", "lat": 45.0667, "lon": -67.05},
    {"id": "00129", "name": "St. Martins", "province": "New Brunswick", "lat": 45.35, "lon": -65.5333},
    {"id": "02120", "name": "Stonehaven", "province": "New Brunswick", "lat": 47.75, "lon": -65.35},
    {"id": "00035", "name": "St. Stephen", "province": "New Brunswick", "lat": 45.2, "lon": -67.2833},
    {"id": "02060", "name": "Tracadie", "province": "New Brunswick", "lat": 47.5167, "lon": -64.8667},
    {"id": "00108", "name": "Upper Gagetown", "province": "New Brunswick", "lat": 45.85, "lon": -66.2333},
    {"id": "00015", "name": "Welshpool", "province": "New Brunswick", "lat": 44.8833, "lon": -66.95},
    {"id": "00011", "name": "West Quoddy Head", "province": "New Brunswick", "lat": 44.8167, "lon": -66.9667},
    {"id": "00020", "name": "Wilsons Beach", "province": "New Brunswick", "lat": 44.9333, "lon": -66.9333},
    {"id": "02637", "name": "Anchor Point", "province": "Newfoundland & Labrador", "lat": 51.2333, "lon": -56.8},
    {"id": "00835", "name": "Argentia", "province": "Newfoundland & Labrador", "lat": 47.3, "lon": -53.9833},
    {"id": "00818", "name": "Arnold´s Cove", "province": "Newfoundland & Labrador", "lat": 47.75, "lon": -54},
    {"id": "01110", "name": "Baie Verte", "province": "Newfoundland & Labrador", "lat": 49.95, "lon": -56.1833},
    {"id": "01190", "name": "Battle Harbour", "province": "Newfoundland & Labrador", "lat": 52.2667, "lon": -55.6},
    {"id": "01097", "name": "Beachside", "province": "Newfoundland & Labrador", "lat": 49.6333, "lon": -55.8833},
    {"id": "00724", "name": "Belleoram", "province": "Newfoundland & Labrador", "lat": 47.5333, "lon": -55.4167},
    {"id": "00915", "name": "Bell Island", "province": "Newfoundland & Labrador", "lat": 47.6333, "lon": -52.9333},
    {"id": "01182", "name": "Black Joke Cove", "province": "Newfoundland & Labrador", "lat": 52.0167, "lon": -55.8667},
    {"id": "00990", "name": "Bonavista", "province": "Newfoundland & Labrador", "lat": 48.65, "lon": -53.1167},
    {"id": "01080", "name": "Botwood", "province": "Newfoundland & Labrador", "lat": 49.1333, "lon": -55.3333},
    {"id": "01065", "name": "Bridgeport", "province": "Newfoundland & Labrador", "lat": 49.55, "lon": -54.8833},
    {"id": "01485", "name": "Brownell Point", "province": "Newfoundland & Labrador", "lat": 59.4167, "lon": -63.85},
    {"id": "01320", "name": "Cabot Point", "province": "Newfoundland & Labrador", "lat": 53.7167, "lon": -59.0333},
    {"id": "01285", "name": "Caravalla Cove", "province": "Newfoundland & Labrador", "lat": 54.05, "lon": -58.5833},
    {"id": "01040", "name": "Carmanville", "province": "Newfoundland & Labrador", "lat": 49.4, "lon": -54.2833},
    {"id": "01245", "name": "Cartwright", "province": "Newfoundland & Labrador", "lat": 53.7, "lon": -57.0333},
    {"id": "01185", "name": "Castle Island", "province": "Newfoundland & Labrador", "lat": 51.9667, "lon": -55.85},
    {"id": "01052", "name": "Change Islands", "province": "Newfoundland & Labrador", "lat": 49.6667, "lon": -54.4167},
    {"id": "01008", "name": "Charlottetown", "province": "Newfoundland & Labrador", "lat": 48.4333, "lon": -54.0167},
    {"id": "00975", "name": "Clarenville", "province": "Newfoundland & Labrador", "lat": 48.1667, "lon": -53.9667},
    {"id": "00977", "name": "Clifton", "province": "Newfoundland & Labrador", "lat": 48.1833, "lon": -53.7333},
    {"id": "00815", "name": "Come By Chance", "province": "Newfoundland & Labrador", "lat": 47.8167, "lon": -54.0167},
    {"id": "01181", "name": "Cook's Harbour", "province": "Newfoundland & Labrador", "lat": 51.6167, "lon": -55.8667},
    {"id": "02680", "name": "Corner Brook", "province": "Newfoundland & Labrador", "lat": 48.95, "lon": -57.95},
    {"id": "00672", "name": "Couteau Bay", "province": "Newfoundland & Labrador", "lat": 47.7167, "lon": -58.05},
    {"id": "02660", "name": "Cow Head", "province": "Newfoundland & Labrador", "lat": 49.9333, "lon": -57.8},
    {"id": "01054", "name": "Dark Cove, Dildo Run", "province": "Newfoundland & Labrador", "lat": 49.5333, "lon": -54.75},
    {"id": "01416", "name": "Davis Inlet", "province": "Newfoundland & Labrador", "lat": 55.8833, "lon": -60.9},
    {"id": "01200", "name": "Denbigh Island", "province": "Newfoundland & Labrador", "lat": 52.5333, "lon": -55.8333},
    {"id": "01056", "name": "Dildo Run (Causeway}", "province": "Newfoundland & Labrador", "lat": 49.4833, "lon": -54.7333},
    {"id": "01025", "name": "Dover-Wellington", "province": "Newfoundland & Labrador", "lat": 48.8667, "lon": -53.9667},
    {"id": "01370", "name": "Emily Harbour", "province": "Newfoundland & Labrador", "lat": 54.5333, "lon": -57.1833},
    {"id": "01085", "name": "Exploits Upper Harbour", "province": "Newfoundland & Labrador", "lat": 49.5167, "lon": -55.0667},
    {"id": "01053", "name": "Farewell", "province": "Newfoundland & Labrador", "lat": 49.55, "lon": -54.4667},
    {"id": "00890", "name": "Fermeuse Harbour", "province": "Newfoundland & Labrador", "lat": 46.9667, "lon": -52.9667},
    {"id": "02635", "name": "Flowers Cove", "province": "Newfoundland & Labrador", "lat": 51.3, "lon": -56.7333},
    {"id": "01050", "name": "Fogo Harbour", "province": "Newfoundland & Labrador", "lat": 49.7333, "lon": -54.2833},
    {"id": "01425", "name": "Ford Harbour", "province": "Newfoundland & Labrador", "lat": 56.45, "lon": -61.2},
    {"id": "02590", "name": "Forteau", "province": "Newfoundland & Labrador", "lat": 51.45, "lon": -56.8833},
    {"id": "02695", "name": "Fox Island", "province": "Newfoundland & Labrador", "lat": 48.7333, "lon": -58.7},
    {"id": "01018", "name": "Glovertown", "province": "Newfoundland & Labrador", "lat": 48.6833, "lon": -54},
    {"id": "00663", "name": "Grand Bay", "province": "Newfoundland & Labrador", "lat": 47.5333, "lon": -59.3667},
    {"id": "00755", "name": "Great St, Lawrence", "province": "Newfoundland & Labrador", "lat": 46.9, "lon": -55.3667},
    {"id": "00898", "name": "Gull Island", "province": "Newfoundland & Labrador", "lat": 47.2667, "lon": -52.7833},
    {"id": "01125", "name": "Hampden", "province": "Newfoundland & Labrador", "lat": 49.5667, "lon": -56.8667},
    {"id": "00720", "name": "Harbour Breton", "province": "Newfoundland & Labrador", "lat": 47.4667, "lon": -55.8},
    {"id": "00935", "name": "Harbour Grace", "province": "Newfoundland & Labrador", "lat": 47.6833, "lon": -53.2167},
    {"id": "00955", "name": "Heart´s Content", "province": "Newfoundland & Labrador", "lat": 47.8667, "lon": -53.3667},
    {"id": "01465", "name": "Hebron", "province": "Newfoundland & Labrador", "lat": 58.1833, "lon": -62.6167},
    {"id": "01186", "name": "Henley Harbour", "province": "Newfoundland & Labrador", "lat": 51.9833, "lon": -55.85},
    {"id": "00710", "name": "Hermitage", "province": "Newfoundland & Labrador", "lat": 47.5667, "lon": -55.9333},
    {"id": "00973", "name": "Hickman's Harbour", "province": "Newfoundland & Labrador", "lat": 48.1, "lon": -53.7333},
    {"id": "00925", "name": "Holyrood", "province": "Newfoundland & Labrador", "lat": 47.35, "lon": -53.1167},
    {"id": "01405", "name": "Hopedale", "province": "Newfoundland & Labrador", "lat": 55.45, "lon": -60.2167},
    {"id": "01420", "name": "House Harbour", "province": "Newfoundland & Labrador", "lat": 56.2333, "lon": -61.05},
    {"id": "00666", "name": "Isle aux Morts", "province": "Newfoundland & Labrador", "lat": 47.5667, "lon": -58.9667},
    {"id": "01398", "name": "Jackos Point", "province": "Newfoundland & Labrador", "lat": 59.45, "lon": -55.1167},
    {"id": "01003", "name": "Jamestown", "province": "Newfoundland & Labrador", "lat": 48.4333, "lon": -53.8},
    {"id": "01267", "name": "Jordans Point", "province": "Newfoundland & Labrador", "lat": 54.2167, "lon": -58.2333},
    {"id": "00893", "name": "Lance Cove", "province": "Newfoundland & Labrador", "lat": 47.0833, "lon": -53.0333},
    {"id": "02685", "name": "Lark Harbour", "province": "Newfoundland & Labrador", "lat": 49.1, "lon": -58.3667},
    {"id": "01105", "name": "La Scie", "province": "Newfoundland & Labrador", "lat": 49.9667, "lon": -55.6},
    {"id": "01070", "name": "Lewisporte", "province": "Newfoundland & Labrador", "lat": 49.2333, "lon": -55.05},
    {"id": "01095", "name": "Little Bay Arm", "province": "Newfoundland & Labrador", "lat": 49.6, "lon": -55.9167},
    {"id": "01165", "name": "Lock´s Cove", "province": "Newfoundland & Labrador", "lat": 51.3333, "lon": -55.95},
    {"id": "00970", "name": "Long Beach", "province": "Newfoundland & Labrador", "lat": 47.9833, "lon": -53.8},
    {"id": "00830", "name": "Long Harbour", "province": "Newfoundland & Labrador", "lat": 47.4333, "lon": -53.8167},
    {"id": "00920", "name": "Long Pond", "province": "Newfoundland & Labrador", "lat": 47.5167, "lon": -52.9667},
    {"id": "01390", "name": "Makkovik", "province": "Newfoundland & Labrador", "lat": 55.0833, "lon": -59.1667},
    {"id": "00907", "name": "Middle Cove", "province": "Newfoundland & Labrador", "lat": 47.6667, "lon": -52.7},
    {"id": "01377", "name": "Mostyn Cove", "province": "Newfoundland & Labrador", "lat": 54.75, "lon": -57.9833},
    {"id": "01035", "name": "Musgrave Harbour", "province": "Newfoundland & Labrador", "lat": 49.0333, "lon": -53.0833},
    {"id": "01430", "name": "Nain", "province": "Newfoundland & Labrador", "lat": 56.5333, "lon": -61.6833},
    {"id": "01205", "name": "Nevile Island", "province": "Newfoundland & Labrador", "lat": 52.55, "lon": -56.1167},
    {"id": "01010", "name": "Newman Sound", "province": "Newfoundland & Labrador", "lat": 48.5833, "lon": -53.95},
    {"id": "02670", "name": "Norris Cove", "province": "Newfoundland & Labrador", "lat": 49.5167, "lon": -57.8667},
    {"id": "00810", "name": "North Harbour", "province": "Newfoundland & Labrador", "lat": 47.85, "lon": -54.1},
    {"id": "01335", "name": "North West River", "province": "Newfoundland & Labrador", "lat": 53.5167, "lon": -60.15},
    {"id": "01248", "name": "Paradise River", "province": "Newfoundland & Labrador", "lat": 53.4333, "lon": -57.2833},
    {"id": "00665", "name": "Port aux Basques", "province": "Newfoundland & Labrador", "lat": 47.5833, "lon": -59.15},
    {"id": "02710", "name": "Port Harmon", "province": "Newfoundland & Labrador", "lat": 48.5167, "lon": -58.5333},
    {"id": "01210", "name": "Port Hope Simpson", "province": "Newfoundland & Labrador", "lat": 52.55, "lon": -56.3},
    {"id": "01195", "name": "Port Marnham", "province": "Newfoundland & Labrador", "lat": 52.3833, "lon": -55.7333},
    {"id": "02650", "name": "Port Saunders", "province": "Newfoundland & Labrador", "lat": 50.65, "lon": -57.3},
    {"id": "00985", "name": "Port Union", "province": "Newfoundland & Labrador", "lat": 48.5, "lon": -53.0833},
    {"id": "01397", "name": "Postville", "province": "Newfoundland & Labrador", "lat": 54.9, "lon": -59.7833},
    {"id": "01217", "name": "Punchbowl", "province": "Newfoundland & Labrador", "lat": 53.25, "lon": -55.7667},
    {"id": "00690", "name": "Pushthrough", "province": "Newfoundland & Labrador", "lat": 47.6333, "lon": -56.1667},
    {"id": "02600", "name": "Red Bay", "province": "Newfoundland & Labrador", "lat": 51.7167, "lon": -56.4167},
    {"id": "01280", "name": "Rigolet", "province": "Newfoundland & Labrador", "lat": 54.1833, "lon": -58.4333},
    {"id": "00745", "name": "Saint-Pierre", "province": "Newfoundland & Labrador", "lat": 46.8167, "lon": -56.1833},
    {"id": "01015", "name": "Salvage", "province": "Newfoundland & Labrador", "lat": 48.6833, "lon": -53.6333},
    {"id": "01247", "name": "Sandwich Bay", "province": "Newfoundland & Labrador", "lat": 53.5667, "lon": -57.1667},
    {"id": "02633", "name": "Savage Cove", "province": "Newfoundland & Labrador", "lat": 51.3333, "lon": -56.7},
    {"id": "01115", "name": "Seal Cove", "province": "Newfoundland & Labrador", "lat": 49.4333, "lon": -56.3667},
    {"id": "01048", "name": "Seldom Come By", "province": "Newfoundland & Labrador", "lat": 49.6167, "lon": -54.1833},
    {"id": "01180", "name": "Ship Cove", "province": "Newfoundland & Labrador", "lat": 51.6333, "lon": -55.6333},
    {"id": "02642", "name": "Shoal Cove", "province": "Newfoundland & Labrador", "lat": 51.0167, "lon": -57.0167},
    {"id": "01410", "name": "Shoal Tickle", "province": "Newfoundland & Labrador", "lat": 55.7667, "lon": -60.3667},
    {"id": "01009", "name": "Slatons Brook", "province": "Newfoundland & Labrador", "lat": 48.5833, "lon": -53.95},
    {"id": "01365", "name": "Smokey", "province": "Newfoundland & Labrador", "lat": 54.4667, "lon": -57.25},
    {"id": "01135", "name": "Sops Island", "province": "Newfoundland & Labrador", "lat": 49.8333, "lon": -56.7667},
    {"id": "01098", "name": "Springdale", "province": "Newfoundland & Labrador", "lat": 49.4833, "lon": -56.05},
    {"id": "00705", "name": "St.Alban´s", "province": "Newfoundland & Labrador", "lat": 47.8667, "lon": -55.8333},
    {"id": "01170", "name": "St. Anthony", "province": "Newfoundland & Labrador", "lat": 51.3667, "lon": -55.5833},
    {"id": "02638", "name": "St, Barbe", "province": "Newfoundland & Labrador", "lat": 51.2, "lon": -56.7667},
    {"id": "00845", "name": "St. Bride´s", "province": "Newfoundland & Labrador", "lat": 46.9167, "lon": -54.1833},
    {"id": "02720", "name": "St. George´s Bay", "province": "Newfoundland & Labrador", "lat": 48.4333, "lon": -58.5},
    {"id": "00905", "name": "St. John´s", "province": "Newfoundland & Labrador", "lat": 47.5667, "lon": -52.7},
    {"id": "00860", "name": "St, Mary's Harbour", "province": "Newfoundland & Labrador", "lat": 46.9333, "lon": -53.5833},
    {"id": "00795", "name": "Tacks Beach", "province": "Newfoundland & Labrador", "lat": 47.5833, "lon": -54.2},
    {"id": "01350", "name": "Terrington Basin", "province": "Newfoundland & Labrador", "lat": 53.35, "lon": -60.4},
    {"id": "01102", "name": "Tilt Cove", "province": "Newfoundland & Labrador", "lat": 49.8833, "lon": -55.6167},
    {"id": "01049", "name": "Tilting Harbour", "province": "Newfoundland & Labrador", "lat": 49.7, "lon": -54.05},
    {"id": "00880", "name": "Trepassey", "province": "Newfoundland & Labrador", "lat": 46.7333, "lon": -53.3667},
    {"id": "00981", "name": "Trinity", "province": "Newfoundland & Labrador", "lat": 48.3667, "lon": -53.35},
    {"id": "01400", "name": "Turnavik Island", "province": "Newfoundland & Labrador", "lat": 55.3, "lon": -59.35},
    {"id": "01060", "name": "Twillingate", "province": "Newfoundland & Labrador", "lat": 49.65, "lon": -54.7667},
    {"id": "01030", "name": "Valleyfield", "province": "Newfoundland & Labrador", "lat": 49.1667, "lon": -53.6167},
    {"id": "02595", "name": "West St. Modeste", "province": "Newfoundland & Labrador", "lat": 51.5833, "lon": -56.7},
    {"id": "01202", "name": "White Bear Arm", "province": "Newfoundland & Labrador", "lat": 52.7333, "lon": -55.8333},
    {"id": "01490", "name": "Williams Harbour", "province": "Newfoundland & Labrador", "lat": 60, "lon": -64.2667},
    {"id": "00805", "name": "Woody Island", "province": "Newfoundland & Labrador", "lat": 47.7833, "lon": -54.1667},
    {"id": "06476", "name": "Atkinson Point", "province": "Northwest Territories", "lat": 69.95, "lon": -131.4167},
    {"id": "06443", "name": "Baillies Islands", "province": "Northwest Territories", "lat": 70.5167, "lon": -128.35},
    {"id": "06472", "name": "Cape Dalhousie", "province": "Northwest Territories", "lat": 70.2667, "lon": -129.65},
    {"id": "06360", "name": "Cape Parry", "province": "Northwest Territories", "lat": 70.15, "lon": -124.6667},
    {"id": "06367", "name": "Franklin Bay", "province": "Northwest Territories", "lat": 69.95, "lon": -126.9167},
    {"id": "06525", "name": "Herschel Island", "province": "Northwest Territories", "lat": 69.5667, "lon": -138.9167},
    {"id": "06495", "name": "Hooper Island", "province": "Northwest Territories", "lat": 69.6833, "lon": -134.8333},
    {"id": "06457", "name": "Krubluyak Point", "province": "Northwest Territories", "lat": 69.5333, "lon": -130.95},
    {"id": "06955", "name": "Mould Bay", "province": "Northwest Territories", "lat": 76.2833, "lon": -119.4667},
    {"id": "05643", "name": "Natkusiak Peninsula", "province": "Northwest Territories", "lat": 73.016, "lon": -110.466},
    {"id": "06350", "name": "Paulatuk", "province": "Northwest Territories", "lat": 69.35, "lon": -124.0667},
    {"id": "06340", "name": "Pearce Point", "province": "Northwest Territories", "lat": 69.8167, "lon": -122.7},
    {"id": "05650", "name": "Peel Point", "province": "Northwest Territories", "lat": 73.2667, "lon": -115.1833},
    {"id": "06497", "name": "Pelly Island", "province": "Northwest Territories", "lat": 69.616, "lon": -135.366},
    {"id": "06424", "name": "Sachs Harbour", "province": "Northwest Territories", "lat": 71.9667, "lon": -125.25},
    {"id": "06505", "name": "Shingle Point", "province": "Northwest Territories", "lat": 68.9333, "lon": -137.2},
    {"id": "06485", "name": "Tuktoyaktuk", "province": "Northwest Territories", "lat": 69.45, "lon": -133},
    {"id": "06338", "name": "Tysoe Point", "province": "Northwest Territories", "lat": 69.6167, "lon": -120.7833},
    {"id": "06380", "name": "Ulukhaktok", "province": "Northwest Territories", "lat": 70.733, "lon": -117.75},
    {"id": "05645", "name": "Winter Harbour", "province": "Northwest Territories", "lat": 74.7833, "lon": -110.8},
    {"id": "00382", "name": "Abbotts Harbour", "province": "Nova Scotia", "lat": 43.6667, "lon": -65.8167},
    {"id": "00380", "name": "Abrams River", "province": "Nova Scotia", "lat": 43.8333, "lon": -65.95},
    {"id": "00236", "name": "Advocate Harbour", "province": "Nova Scotia", "lat": 45.3333, "lon": -64.7833},
    {"id": "01590", "name": "Antigonish Harbour", "province": "Nova Scotia", "lat": 45.6667, "lon": -61.9167},
    {"id": "00580", "name": "Arichat", "province": "Nova Scotia", "lat": 45.5167, "lon": -61.0333},
    {"id": "01610", "name": "Arisaig", "province": "Nova Scotia", "lat": 45.7667, "lon": -62.1667},
    {"id": "01570", "name": "Aulds Cove", "province": "Nova Scotia", "lat": 45.65, "lon": -61.4333},
    {"id": "01600", "name": "Ballantynes Cove", "province": "Nova Scotia", "lat": 45.8667, "lon": -61.9167},
    {"id": "00415", "name": "Barrington Passage", "province": "Nova Scotia", "lat": 43.5333, "lon": -65.6167},
    {"id": "00305", "name": "Baxters Harbour", "province": "Nova Scotia", "lat": 45.2333, "lon": -64.5167},
    {"id": "01520", "name": "Bay St. Lawrence", "province": "Nova Scotia", "lat": 47.0167, "lon": -60.45},
    {"id": "00491", "name": "Bedford Institute", "province": "Nova Scotia", "lat": 44.6833, "lon": -63.6167},
    {"id": "01547", "name": "Belle Cote Breakwater", "province": "Nova Scotia", "lat": 46.4333, "lon": -61.0833},
    {"id": "00620", "name": "Big Bras D'or", "province": "Nova Scotia", "lat": 46.2833, "lon": -60.4333},
    {"id": "00623", "name": "Black Rock Point", "province": "Nova Scotia", "lat": 46.3, "lon": -60.4},
    {"id": "00479", "name": "Blandford", "province": "Nova Scotia", "lat": 44.5, "lon": -64.0833},
    {"id": "00482", "name": "Boutiliers Point", "province": "Nova Scotia", "lat": 44.65, "lon": -63.95},
    {"id": "00450", "name": "Bridgewater", "province": "Nova Scotia", "lat": 44.3667, "lon": -64.5},
    {"id": "00330", "name": "Broad Cove", "province": "Nova Scotia", "lat": 44.6667, "lon": -65.8333},
    {"id": "01550", "name": "Broad Cove Marsh", "province": "Nova Scotia", "lat": 46.3, "lon": -61.2667},
    {"id": "00367", "name": "Bunker I, Light", "province": "Nova Scotia", "lat": 43.8167, "lon": -66.15},
    {"id": "00366", "name": "Bunker I, Wharf", "province": "Nova Scotia", "lat": 43.8167, "lon": -66.1333},
    {"id": "00270", "name": "Burntcoat Head", "province": "Nova Scotia", "lat": 45.3, "lon": -63.8},
    {"id": "00585", "name": "Cannes", "province": "Nova Scotia", "lat": 45.6333, "lon": -60.9667},
    {"id": "00555", "name": "Canso Harbour", "province": "Nova Scotia", "lat": 45.3333, "lon": -61},
    {"id": "00290", "name": "Cape Blomidon", "province": "Nova Scotia", "lat": 45.2667, "lon": -64.35},
    {"id": "00225", "name": "Cape Capstan", "province": "Nova Scotia", "lat": 45.4667, "lon": -64.85},
    {"id": "01770", "name": "Cape Cliff", "province": "Nova Scotia", "lat": 45.8833, "lon": -63.4667},
    {"id": "00240", "name": "Cape D´Or", "province": "Nova Scotia", "lat": 45.2833, "lon": -64.7667},
    {"id": "01580", "name": "Cape Jack", "province": "Nova Scotia", "lat": 45.7, "lon": -61.55},
    {"id": "00250", "name": "Cape Sharp", "province": "Nova Scotia", "lat": 45.3667, "lon": -64.3833},
    {"id": "01640", "name": "Caribou", "province": "Nova Scotia", "lat": 45.7333, "lon": -62.6833},
    {"id": "00334", "name": "Centreville", "province": "Nova Scotia", "lat": 44.55, "lon": -66.0333},
    {"id": "01539", "name": "Cheticamp", "province": "Nova Scotia", "lat": 46.6333, "lon": -61.0167},
    {"id": "00493", "name": "Chezzetcook Inlet", "province": "Nova Scotia", "lat": 44.7833, "lon": -63.2333},
    {"id": "00353", "name": "Church Point", "province": "Nova Scotia", "lat": 44.3333, "lon": -66.1167},
    {"id": "00405", "name": "Clark´s Harbour", "province": "Nova Scotia", "lat": 43.45, "lon": -65.6333},
    {"id": "00485", "name": "Cliff Cove", "province": "Nova Scotia", "lat": 44.5167, "lon": -63.9333},
    {"id": "01597", "name": "Cribbons Point", "province": "Nova Scotia", "lat": 45.75, "lon": -61.9},
    {"id": "00325", "name": "Digby", "province": "Nova Scotia", "lat": 44.6333, "lon": -65.75},
    {"id": "00247", "name": "Diligent River", "province": "Nova Scotia", "lat": 45.4, "lon": -64.4167},
    {"id": "00638", "name": "Dingwall", "province": "Nova Scotia", "lat": 46.9, "lon": -60.4667},
    {"id": "00622", "name": "Duffus Point", "province": "Nova Scotia", "lat": 46.2833, "lon": -60.4167},
    {"id": "00336", "name": "East Sandy Cove", "province": "Nova Scotia", "lat": 44.4833, "lon": -66.0833},
    {"id": "00514", "name": "Ecum Secum", "province": "Nova Scotia", "lat": 44.9667, "lon": -62.1333},
    {"id": "00260", "name": "Five Islands", "province": "Nova Scotia", "lat": 45.3833, "lon": -64.0667},
    {"id": "00395", "name": "Flat Island", "province": "Nova Scotia", "lat": 43.5, "lon": -66},
    {"id": "00595", "name": "Fourchu", "province": "Nova Scotia", "lat": 45.7167, "lon": -60.25},
    {"id": "00333", "name": "Grand Eddy", "province": "Nova Scotia", "lat": 44.4, "lon": -66.2},
    {"id": "00490", "name": "Halifax", "province": "Nova Scotia", "lat": 44.6667, "lon": -63.5833},
    {"id": "00282", "name": "Hantsport", "province": "Nova Scotia", "lat": 45.0667, "lon": -64.1667},
    {"id": "00480", "name": "Hubbards", "province": "Nova Scotia", "lat": 44.6333, "lon": -64.05},
    {"id": "00484", "name": "Indian Harbour", "province": "Nova Scotia", "lat": 44.5167, "lon": -63.9333},
    {"id": "00423", "name": "Ingomar", "province": "Nova Scotia", "lat": 43.5667, "lon": -65.3333},
    {"id": "00630", "name": "Ingonish Ferry", "province": "Nova Scotia", "lat": 46.6333, "lon": -60.3833},
    {"id": "00535", "name": "Isaacs Harbour", "province": "Nova Scotia", "lat": 45.1833, "lon": -61.6667},
    {"id": "00312", "name": "Isle Haute", "province": "Nova Scotia", "lat": 45.25, "lon": -65},
    {"id": "00215", "name": "Joggins", "province": "Nova Scotia", "lat": 45.6833, "lon": -64.4667},
    {"id": "00653", "name": "Johnstown", "province": "Nova Scotia", "lat": 45.8, "lon": -60.75},
    {"id": "00368", "name": "Kelley's Cove", "province": "Nova Scotia", "lat": 43.7833, "lon": -66.1333},
    {"id": "01540", "name": "La Pointe", "province": "Nova Scotia", "lat": 46.6, "lon": -61.05},
    {"id": "00540", "name": "Larrys River", "province": "Nova Scotia", "lat": 45.2167, "lon": -61.3833},
    {"id": "00345", "name": "Lighthouse Cove", "province": "Nova Scotia", "lat": 44.25, "lon": -66.4},
    {"id": "00515", "name": "Liscomb Harbour", "province": "Nova Scotia", "lat": 45.0167, "lon": -62},
    {"id": "00497", "name": "Little Harbour", "province": "Nova Scotia", "lat": 44.7167, "lon": -62.85},
    {"id": "00440", "name": "Liverpool", "province": "Nova Scotia", "lat": 44.05, "lon": -64.7167},
    {"id": "00430", "name": "Lockeport", "province": "Nova Scotia", "lat": 43.7, "lon": -65.1167},
    {"id": "00600", "name": "Louisbourg", "province": "Nova Scotia", "lat": 45.9167, "lon": -59.9667},
    {"id": "00385", "name": "Lower East Pubnico", "province": "Nova Scotia", "lat": 43.6333, "lon": -65.7667},
    {"id": "00374", "name": "Lower Wedgeport", "province": "Nova Scotia", "lat": 43.7167, "lon": -65.9833},
    {"id": "00455", "name": "Lunenburg", "province": "Nova Scotia", "lat": 44.3667, "lon": -64.3167},
    {"id": "00210", "name": "Maccan", "province": "Nova Scotia", "lat": 45.7247, "lon": -64.2598},
    {"id": "00267", "name": "Maitland", "province": "Nova Scotia", "lat": 5.2512, "lon": -63.456},
    {"id": "01760", "name": "Malagash", "province": "Nova Scotia", "lat": 45.7833, "lon": -63.2833},
    {"id": "01546", "name": "Margaree Breakwater", "province": "Nova Scotia", "lat": 46.45, "lon": -61.1167},
    {"id": "01545", "name": "Margaree Trailer", "province": "Nova Scotia", "lat": 46.4333, "lon": -61.1167},
    {"id": "00315", "name": "Margaretsville", "province": "Nova Scotia", "lat": 45.05, "lon": -65.0667},
    {"id": "01548", "name": "Margeree Bridge", "province": "Nova Scotia", "lat": 46.4, "lon": -61.0833},
    {"id": "00516", "name": "Marie Joseph", "province": "Nova Scotia", "lat": 44.9667, "lon": -62.0833},
    {"id": "01620", "name": "Merigomish", "province": "Nova Scotia", "lat": 45.65, "lon": -62.45},
    {"id": "00355", "name": "Meteghan", "province": "Nova Scotia", "lat": 44.2, "lon": -66.1667},
    {"id": "00475", "name": "Mill Cove", "province": "Nova Scotia", "lat": 44.5833, "lon": -64.0667},
    {"id": "01662", "name": "Montague", "province": "Nova Scotia", "lat": 46.1667, "lon": -62.65},
    {"id": "00500", "name": "Murphy Cove", "province": "Nova Scotia", "lat": 44.7833, "lon": -62.75},
    {"id": "00635", "name": "Neil's Harbour", "province": "Nova Scotia", "lat": 46.8, "lon": -60.3167},
    {"id": "00612", "name": "North Sydney", "province": "Nova Scotia", "lat": 46.2167, "lon": -60.25},
    {"id": "00473", "name": "Owls Head", "province": "Nova Scotia", "lat": 44.5833, "lon": -63.9167},
    {"id": "00320", "name": "Parkers Cove", "province": "Nova Scotia", "lat": 44.8, "lon": -65.5333},
    {"id": "00255", "name": "Parrsboro", "province": "Nova Scotia", "lat": 45.3667, "lon": -64.3333},
    {"id": "00582", "name": "Petit-de-Grat", "province": "Nova Scotia", "lat": 45.5, "lon": -60.9667},
    {"id": "01630", "name": "Pictou", "province": "Nova Scotia", "lat": 45.6833, "lon": -62.7},
    {"id": "01635", "name": "Pictou Island", "province": "Nova Scotia", "lat": 45.8, "lon": -62.5833},
    {"id": "00370", "name": "Pinkney Point", "province": "Nova Scotia", "lat": 43.7, "lon": -66.0667},
    {"id": "00576", "name": "Point Tupper", "province": "Nova Scotia", "lat": 45.6, "lon": -61.3667},
    {"id": "00530", "name": "Port Bickerton", "province": "Nova Scotia", "lat": 45.1, "lon": -61.7333},
    {"id": "00511", "name": "Port Dufferin", "province": "Nova Scotia", "lat": 44.9, "lon": -62.3667},
    {"id": "00245", "name": "Port Greville", "province": "Nova Scotia", "lat": 45.4, "lon": -64.55},
    {"id": "00570", "name": "Port Hastings", "province": "Nova Scotia", "lat": 45.65, "lon": -61.4},
    {"id": "00575", "name": "Port Hawkesbury", "province": "Nova Scotia", "lat": 45.6167, "lon": -61.3667},
    {"id": "01560", "name": "Port Hood", "province": "Nova Scotia", "lat": 46.0167, "lon": -61.5333},
    {"id": "00360", "name": "Port Maitland", "province": "Nova Scotia", "lat": 43.9833, "lon": -66.15},
    {"id": "00435", "name": "Port Mouton", "province": "Nova Scotia", "lat": 43.9333, "lon": -64.85},
    {"id": "00486", "name": "Prospect", "province": "Nova Scotia", "lat": 44.45, "lon": -63.7833},
    {"id": "01775", "name": "Pugwash", "province": "Nova Scotia", "lat": 45.85, "lon": -63.6833},
    {"id": "00211", "name": "River Hebert", "province": "Nova Scotia", "lat": 45.6902, "lon": -64.3738},
    {"id": "00452", "name": "Riverport", "province": "Nova Scotia", "lat": 44.2833, "lon": -64.3333},
    {"id": "00550", "name": "Sable Island", "province": "Nova Scotia", "lat": 43.9667, "lon": -59.8},
    {"id": "00495", "name": "Salmon River Bridge", "province": "Nova Scotia", "lat": 44.7667, "lon": -63.05},
    {"id": "00488", "name": "Sambro Harbour", "province": "Nova Scotia", "lat": 44.4833, "lon": -63.6},
    {"id": "00563", "name": "Sand Point", "province": "Nova Scotia", "lat": 45.5167, "lon": -61.2667},
    {"id": "00335", "name": "Sandy Cove", "province": "Nova Scotia", "lat": 44.5, "lon": -66.1},
    {"id": "00426", "name": "Sandy Point", "province": "Nova Scotia", "lat": 43.7, "lon": -65.3333},
    {"id": "00300", "name": "Scots Bay", "province": "Nova Scotia", "lat": 45.3167, "lon": -64.4333},
    {"id": "00400", "name": "Seal Island", "province": "Nova Scotia", "lat": 43.4833, "lon": -66},
    {"id": "00510", "name": "Sheet Harbour", "province": "Nova Scotia", "lat": 44.9167, "lon": -62.5333},
    {"id": "00425", "name": "Shelburne", "province": "Nova Scotia", "lat": 43.75, "lon": -65.3},
    {"id": "00525", "name": "Sherbrooke", "province": "Nova Scotia", "lat": 45.1333, "lon": -61.9833},
    {"id": "01745", "name": "Skinners Cove", "province": "Nova Scotia", "lat": 45.8, "lon": -63.05},
    {"id": "00520", "name": "Sonora", "province": "Nova Scotia", "lat": 45.05, "lon": -61.9167},
    {"id": "00242", "name": "Spencers Island", "province": "Nova Scotia", "lat": 45.35, "lon": -64.7167},
    {"id": "00509", "name": "Spry Harbour", "province": "Nova Scotia", "lat": 44.8333, "lon": -62.6167},
    {"id": "01530", "name": "St. Paul Island", "province": "Nova Scotia", "lat": 47.2, "lon": -60.15},
    {"id": "00410", "name": "Swims Point", "province": "Nova Scotia", "lat": 43.4333, "lon": -65.6333},
    {"id": "00610", "name": "Sydney", "province": "Nova Scotia", "lat": 46.15, "lon": -60.2},
    {"id": "00621", "name": "Table Head", "province": "Nova Scotia", "lat": 46.3333, "lon": -60.3667},
    {"id": "00281", "name": "Tidal View Farm", "province": "Nova Scotia", "lat": 45.01, "lon": -64.073},
    {"id": "01780", "name": "Tidnish", "province": "Nova Scotia", "lat": 46, "lon": -64.0167},
    {"id": "00338", "name": "Tiverton, Boars Head", "province": "Nova Scotia", "lat": 44.4, "lon": -66.2167},
    {"id": "00337", "name": "Tiverton, South Entrance", "province": "Nova Scotia", "lat": 44.3833, "lon": -66.2167},
    {"id": "00505", "name": "Tomlee Bay", "province": "Nova Scotia", "lat": 44.8333, "lon": -62.6},
    {"id": "00265", "name": "Truro", "province": "Nova Scotia", "lat": 45.4667, "lon": -63.3167},
    {"id": "00378", "name": "Tusket", "province": "Nova Scotia", "lat": 43.85, "lon": -65.9833},
    {"id": "00420", "name": "Upper Port La Tour", "province": "Nova Scotia", "lat": 43.5167, "lon": -65.4667},
    {"id": "00375", "name": "Wedgeport", "province": "Nova Scotia", "lat": 43.7333, "lon": -65.9833},
    {"id": "00235", "name": "West Advocate", "province": "Nova Scotia", "lat": 45.35, "lon": -64.8167},
    {"id": "00408", "name": "West Head", "province": "Nova Scotia", "lat": 43.4667, "lon": -65.65},
    {"id": "00339", "name": "West Narrows", "province": "Nova Scotia", "lat": 44.4, "lon": -66.2167},
    {"id": "00512", "name": "West Newdy Quoddy", "province": "Nova Scotia", "lat": 44.9, "lon": -62.3167},
    {"id": "00340", "name": "Westport", "province": "Nova Scotia", "lat": 44.2667, "lon": -66.35},
    {"id": "00545", "name": "Whitehead", "province": "Nova Scotia", "lat": -61.1833, "lon": -61.1833},
    {"id": "00390", "name": "Woods Harbour", "province": "Nova Scotia", "lat": 43.5333, "lon": -65.7333},
    {"id": "00365", "name": "Yarmouth", "province": "Nova Scotia", "lat": 43.8333, "lon": -66.1167},
    {"id": "04170", "name": "Acadia Cove", "province": "Nunavut", "lat": 61.35, "lon": -64.9},
    {"id": "04335", "name": "Agvik Island", "province": "Nunavut", "lat": 60.0167, "lon": -69.7},
    {"id": "06765", "name": "Airstrip Point", "province": "Nunavut", "lat": 76.0833, "lon": -97.7333},
    {"id": "03765", "name": "Alert", "province": "Nunavut", "lat": 82.5, "lon": -62.3167},
    {"id": "03838", "name": "Alexandra Fiord", "province": "Nunavut", "lat": 78.9118, "lon": -75.4795},
    {"id": "05865", "name": "Arctic Bay", "province": "Nunavut", "lat": 73.0333, "lon": -85.1667},
    {"id": "05040", "name": "Arviat (Eskimo Point}", "province": "Nunavut", "lat": 61.1167, "lon": -94.0667},
    {"id": "04215", "name": "Ashe Inlet", "province": "Nunavut", "lat": 62.55, "lon": -70.583},
    {"id": "06284", "name": "Austin Bay", "province": "Nunavut", "lat": 68.5167, "lon": -113.2},
    {"id": "06580", "name": "Bay of Woe", "province": "Nunavut", "lat": 76.4167, "lon": -89.0667},
    {"id": "04648", "name": "Bear Island", "province": "Nunavut", "lat": 55.1, "lon": -78.35},
    {"id": "04880", "name": "Bear Island (James Bay}", "province": "Nunavut", "lat": 54.35, "lon": -81.0833},
    {"id": "05510", "name": "Beechey Island", "province": "Nunavut", "lat": 74.7167, "lon": -91.9},
    {"id": "04604", "name": "Bélanger Island", "province": "Nunavut", "lat": 56.1333, "lon": -76.7167},
    {"id": "05917", "name": "Bellot Strait East", "province": "Nunavut", "lat": 72.016, "lon": -94.333},
    {"id": "05195", "name": "Bennett Bay", "province": "Nunavut", "lat": 65.8753, "lon": -89.5286},
    {"id": "06310", "name": "Bernard Harbour", "province": "Nunavut", "lat": 68.7833, "lon": -114.7833},
    {"id": "04070", "name": "Brevoort Harbour", "province": "Nunavut", "lat": 63.3167, "lon": -64.15},
    {"id": "06240", "name": "Cambridge Bay", "province": "Nunavut", "lat": 69.1167, "lon": -105.0667},
    {"id": "06787", "name": "Cameron Island", "province": "Nunavut", "lat": 76.316, "lon": -104.033},
    {"id": "06735", "name": "Cape Aldrich", "province": "Nunavut", "lat": 83.1167, "lon": -69.6667},
    {"id": "05940", "name": "Cape Augherston", "province": "Nunavut", "lat": 71.483, "lon": -93.283},
    {"id": "05992", "name": "Cape Barclay", "province": "Nunavut", "lat": 68.233, "lon": -88.133},
    {"id": "05976", "name": "Cape Berens", "province": "Nunavut", "lat": 69.066, "lon": -90.633},
    {"id": "05600", "name": "Cape Capel", "province": "Nunavut", "lat": 75.0667, "lon": -98.2333},
    {"id": "05975", "name": "Cape Chapman", "province": "Nunavut", "lat": 69.3, "lon": -89.25},
    {"id": "05190", "name": "Cape Dobbs", "province": "Nunavut", "lat": 65.1006, "lon": -86.9635},
    {"id": "04245", "name": "Cape Dorset", "province": "Nunavut", "lat": 64.2297, "lon": -76.495},
    {"id": "03995", "name": "Cape Dyer", "province": "Nunavut", "lat": 66.55, "lon": -61.6667},
    {"id": "06140", "name": "Cape Felix", "province": "Nunavut", "lat": 69.9465, "lon": -97.9096},
    {"id": "03960", "name": "Cape Hooper", "province": "Nunavut", "lat": 68.3833, "lon": -66.75},
    {"id": "05935", "name": "Cape Kater", "province": "Nunavut", "lat": 71.966, "lon": -90.066},
    {"id": "05978", "name": "Cape Miles", "province": "Nunavut", "lat": 69.333, "lon": -90.466},
    {"id": "03780", "name": "Cape Sheridan", "province": "Nunavut", "lat": 82.45, "lon": -61.5},
    {"id": "05990", "name": "Cape Sibbald", "province": "Nunavut", "lat": 69.333, "lon": -90.766},
    {"id": "06560", "name": "Cape Skogn", "province": "Nunavut", "lat": 75.7833, "lon": -84.1667},
    {"id": "04730", "name": "Charlton Island", "province": "Nunavut", "lat": 51.9667, "lon": -79.3},
    {"id": "05140", "name": "Chesterfield Inlet", "province": "Nunavut", "lat": 63.3333, "lon": -90.7},
    {"id": "04040", "name": "Clearwater Fiord", "province": "Nunavut", "lat": 66.6, "lon": -67.3167},
    {"id": "03940", "name": "Clyde River", "province": "Nunavut", "lat": 70.1667, "lon": -69.5},
    {"id": "05180", "name": "Coral Harbour", "province": "Nunavut", "lat": 64.1333, "lon": -83.1667},
    {"id": "05970", "name": "Crown Prince Frederick", "province": "Nunavut", "lat": 70.033, "lon": -86.833},
    {"id": "05998", "name": "Dease Peninsula", "province": "Nunavut", "lat": 67.266, "lon": -87.316},
    {"id": "04460", "name": "Deception Bay", "province": "Nunavut", "lat": 62.15, "lon": -74.75},
    {"id": "04480", "name": "Digges Harbour", "province": "Nunavut", "lat": 62.5667, "lon": -77.8667},
    {"id": "03790", "name": "Discovery Harbour", "province": "Nunavut", "lat": 81.7333, "lon": -64.7333},
    {"id": "06730", "name": "Disraeli Fiord", "province": "Nunavut", "lat": 82.8833, "lon": -73.5},
    {"id": "04415", "name": "Doctor Island", "province": "Nunavut", "lat": 61.683, "lon": -71.566},
    {"id": "04435", "name": "Douglas Harbour", "province": "Nunavut", "lat": 61.9167, "lon": -72.6167},
    {"id": "05430", "name": "Dundas Harbour", "province": "Nunavut", "lat": 74.5167, "lon": -82.4333},
    {"id": "06640", "name": "Eureka", "province": "Nunavut", "lat": 79.9833, "lon": -85.95},
    {"id": "06100", "name": "False Strait", "province": "Nunavut", "lat": 71.9833, "lon": -95.1667},
    {"id": "05930", "name": "Fort Ross", "province": "Nunavut", "lat": 72.0167, "lon": -94.2333},
    {"id": "04120", "name": "Frobisher´s Farthest", "province": "Nunavut", "lat": 63.4833, "lon": -68.0333},
    {"id": "05918", "name": "Fury Point", "province": "Nunavut", "lat": 72.9, "lon": -91.8},
    {"id": "04597", "name": "Gillies Island", "province": "Nunavut", "lat": 56.55, "lon": -76.6333},
    {"id": "06170", "name": "Gjoa Haven", "province": "Nunavut", "lat": 68.6172, "lon": -95.8881},
    {"id": "06210", "name": "Gladman Point", "province": "Nunavut", "lat": 69.5167, "lon": -98.5167},
    {"id": "06670", "name": "Greely Fiord", "province": "Nunavut", "lat": 80.6, "lon": -79.5833},
    {"id": "06570", "name": "Grise Fiord", "province": "Nunavut", "lat": 76.4167, "lon": -83.1667},
    {"id": "05275", "name": "Hall Beach", "province": "Nunavut", "lat": 68.75, "lon": -81.2167},
    {"id": "05615", "name": "Hamilton Island", "province": "Nunavut", "lat": 74.2, "lon": -99.1667},
    {"id": "04688", "name": "Hook Island", "province": "Nunavut", "lat": 53.433, "lon": -79.116},
    {"id": "04325", "name": "Hopes Advance Bay", "province": "Nunavut", "lat": 59.35, "lon": -69.6333},
    {"id": "06660", "name": "Iceberg Point", "province": "Nunavut", "lat": 80.3167, "lon": -86.3333},
    {"id": "05295", "name": "Igloolik", "province": "Nunavut", "lat": 69.3667, "lon": -81.7667},
    {"id": "04045", "name": "Imigen Island", "province": "Nunavut", "lat": 66.0166, "lon": -67.15},
    {"id": "04610", "name": "Innetalling Island", "province": "Nunavut", "lat": 55.9, "lon": -79.0667},
    {"id": "04140", "name": "Iqaluit", "province": "Nunavut", "lat": 63.7167, "lon": -68.5333},
    {"id": "06910", "name": "Isachsen", "province": "Nunavut", "lat": 78.7833, "lon": -103.5333},
    {"id": "06213", "name": "Island NE of M'Clintock Point", "province": "Nunavut", "lat": 69.2688, "lon": -99.7809},
    {"id": "06225", "name": "Jenny Lind Island", "province": "Nunavut", "lat": 68.7, "lon": -101.95},
    {"id": "04425", "name": "Kangiqsujuaq", "province": "Nunavut", "lat": 61.6, "lon": -72.25},
    {"id": "04205", "name": "Kimmirut", "province": "Nunavut", "lat": 62.85, "lon": -69.8833},
    {"id": "03970", "name": "Kivitoo", "province": "Nunavut", "lat": 67.9333, "lon": -64.9333},
    {"id": "05790", "name": "Koluktoo Bay", "province": "Nunavut", "lat": 72.1, "lon": -80.7833},
    {"id": "05985", "name": "Kugaaruk", "province": "Nunavut", "lat": 68.55, "lon": -89.8833},
    {"id": "06290", "name": "Kugluktuk", "province": "Nunavut", "lat": 67.8833, "lon": -115.2167},
    {"id": "05948", "name": "Lavoie Islands (Bernier Bay}", "province": "Nunavut", "lat": 71.016, "lon": -87.533},
    {"id": "04135", "name": "Lewis Bay", "province": "Nunavut", "lat": 63.6, "lon": -68.0667},
    {"id": "06758", "name": "Little Cornwallis Island", "province": "Nunavut", "lat": 75.3833, "lon": -96.95},
    {"id": "04655", "name": "Long Island", "province": "Nunavut", "lat": 54.7667, "lon": -79.7333},
    {"id": "04681", "name": "Loon Islands", "province": "Nunavut", "lat": 53.4, "lon": -79},
    {"id": "05070", "name": "Marble Island", "province": "Nunavut", "lat": 62.6833, "lon": -91.2},
    {"id": "05960", "name": "Martin Islands", "province": "Nunavut", "lat": 70.316, "lon": -91.666},
    {"id": "05791", "name": "Milne Inlet", "province": "Nunavut", "lat": 71.9, "lon": -80.85},
    {"id": "05358", "name": "Needle Cove", "province": "Nunavut", "lat": 69.0833, "lon": -79.1167},
    {"id": "04548", "name": "North Kopak Island", "province": "Nunavut", "lat": 60, "lon": -77.75},
    {"id": "06780", "name": "Northumberland Sound", "province": "Nunavut", "lat": 76.8667, "lon": -96.7},
    {"id": "05159", "name": "Norton Island", "province": "Nunavut", "lat": 64, "lon": -94.2167},
    {"id": "06144", "name": "Oscar Bay", "province": "Nunavut", "lat": 69.77, "lon": -95.83},
    {"id": "05193", "name": "Paliak Islands", "province": "Nunavut", "lat": 65.3867, "lon": -89.0454},
    {"id": "04029", "name": "Pangnirtung", "province": "Nunavut", "lat": 66.166, "lon": -65.633},
    {"id": "05090", "name": "Panorama Island", "province": "Nunavut", "lat": 62.8167, "lon": -92.0667},
    {"id": "03840", "name": "Pim Island", "province": "Nunavut", "lat": 78.6667, "lon": -74.1667},
    {"id": "05795", "name": "Pisiktarfik Island", "province": "Nunavut", "lat": 72.5833, "lon": -80.5},
    {"id": "05800", "name": "Pond Inlet (site}", "province": "Nunavut", "lat": 72.7, "lon": -77.9667},
    {"id": "05912", "name": "Port Bowen", "province": "Nunavut", "lat": 73.283, "lon": -89.05},
    {"id": "04265", "name": "Port Burwell", "province": "Nunavut", "lat": 60.4167, "lon": -64.85},
    {"id": "04500", "name": "Port de Boucherville", "province": "Nunavut", "lat": 63.1667, "lon": -77.5833},
    {"id": "04490", "name": "Port de Laperriere", "province": "Nunavut", "lat": 62.566, "lon": -78.066},
    {"id": "05330", "name": "Purfur Cove", "province": "Nunavut", "lat": 69.8333, "lon": -84.2167},
    {"id": "03980", "name": "Qikiqtarjuaq", "province": "Nunavut", "lat": 67.5167, "lon": -64.0667},
    {"id": "05500", "name": "Radstock Bay", "province": "Nunavut", "lat": 74.7167, "lon": -91.0833},
    {"id": "05100", "name": "Rankin Inlet", "province": "Nunavut", "lat": 62.8167, "lon": -92.0667},
    {"id": "04628", "name": "Renouf Island", "province": "Nunavut", "lat": 56.5667, "lon": -79.1667},
    {"id": "05200", "name": "Repulse Bay", "province": "Nunavut", "lat": 66.5333, "lon": -86.25},
    {"id": "05560", "name": "Resolute", "province": "Nunavut", "lat": 74.6833, "lon": -94.9},
    {"id": "04100", "name": "Resor Island", "province": "Nunavut", "lat": 63.2167, "lon": -68.05},
    {"id": "05490", "name": "Rigby Bay", "province": "Nunavut", "lat": 74.55, "lon": -90.1667},
    {"id": "04780", "name": "Sand Head", "province": "Nunavut", "lat": 51.4167, "lon": -80.35},
    {"id": "05161", "name": "Schooner Cove", "province": "Nunavut", "lat": 63.99, "lon": -94.27},
    {"id": "04255", "name": "Schooner Harbour", "province": "Nunavut", "lat": 64.4, "lon": -77.8667},
    {"id": "05310", "name": "Sévigny Point", "province": "Nunavut", "lat": 69.7833, "lon": -82.1167},
    {"id": "06160", "name": "Shepherd Bay", "province": "Nunavut", "lat": 68.766, "lon": -93.566},
    {"id": "04160", "name": "Sorry Harbour", "province": "Nunavut", "lat": 61.6167, "lon": -64.7333},
    {"id": "04740", "name": "Stag Island", "province": "Nunavut", "lat": 51.6333, "lon": -79.0333},
    {"id": "05860", "name": "Strathcona Sound", "province": "Nunavut", "lat": 73.05, "lon": -84.4},
    {"id": "04720", "name": "Strutton Island", "province": "Nunavut", "lat": 52.033, "lon": -78.866},
    {"id": "06150", "name": "Taloyoak", "province": "Nunavut", "lat": 69.5333, "lon": -93.5167},
    {"id": "04600", "name": "Tukarak Island", "province": "Nunavut", "lat": 56.3167, "lon": -78.8333},
    {"id": "05055", "name": "Whale Cove", "province": "Nunavut", "lat": 62.1667, "lon": -92.5667},
    {"id": "05906", "name": "Whaler Point", "province": "Nunavut", "lat": 73.816, "lon": -90.3},
    {"id": "03785", "name": "Wrangel Bay", "province": "Nunavut", "lat": 82, "lon": -62.5},
    {"id": "04840", "name": "Fort Albany", "province": "Ontario", "lat": 52.116, "lon": -81.366},
    {"id": "11445", "name": "Midland", "province": "Ontario", "lat": 44.75, "lon": -79.85},
    {"id": "04810", "name": "Moosonee", "province": "Ontario", "lat": 51.2833, "lon": -80.6333},
    {"id": "04800", "name": "Nicholson Creek", "province": "Ontario", "lat": 51.3, "lon": -80.566},
    {"id": "12400", "name": "Port Stanley", "province": "Ontario", "lat": 42.6579, "lon": -81.2137},
    {"id": "04790", "name": "Ship Sands Island", "province": "Ontario", "lat": 51.333, "lon": -80.433},
    {"id": "10050", "name": "Thunder Bay", "province": "Ontario", "lat": 48.4, "lon": -89.2167},
    {"id": "04920", "name": "Winisk", "province": "Ontario", "lat": 55.2833, "lon": -85.1},
    {"id": "01885", "name": "Alberton", "province": "Prince Edward Island", "lat": 46.8, "lon": -64.0667},
    {"id": "01725", "name": "Borden", "province": "Prince Edward Island", "lat": 46.25, "lon": -63.7},
    {"id": "01710", "name": "Canoe Cove", "province": "Prince Edward Island", "lat": 46.15, "lon": -63.3},
    {"id": "01835", "name": "Cape Egmont", "province": "Prince Edward Island", "lat": 46.4, "lon": -64.1333},
    {"id": "01700", "name": "Charlottetown", "province": "Prince Edward Island", "lat": 46.2167, "lon": -63.1333},
    {"id": "01896", "name": "Ellerslie", "province": "Prince Edward Island", "lat": 46.65, "lon": -63.9167},
    {"id": "01660", "name": "Georgetown", "province": "Prince Edward Island", "lat": 46.1833, "lon": -62.5333},
    {"id": "01665", "name": "Graham Pond", "province": "Prince Edward Island", "lat": 46.1, "lon": -62.45},
    {"id": "01905", "name": "Malpeque", "province": "Prince Edward Island", "lat": 46.5333, "lon": -63.7},
    {"id": "01855", "name": "Miminegash", "province": "Prince Edward Island", "lat": 46.8833, "lon": -64.2333},
    {"id": "01670", "name": "Murray Harbour", "province": "Prince Edward Island", "lat": 46.0167, "lon": -62.4833},
    {"id": "01945", "name": "Naufrage", "province": "Prince Edward Island", "lat": 46.4667, "lon": -62.4167},
    {"id": "01955", "name": "North Lake Harbour", "province": "Prince Edward Island", "lat": 46.4667, "lon": -62.0667},
    {"id": "01865", "name": "North Point", "province": "Prince Edward Island", "lat": 47.0667, "lon": -63.9833},
    {"id": "01690", "name": "Point Prim", "province": "Prince Edward Island", "lat": 46.05, "lon": -63.0333},
    {"id": "01915", "name": "Rustico", "province": "Prince Edward Island", "lat": 46.4667, "lon": -63.2833},
    {"id": "01925", "name": "Savage Harbour", "province": "Prince Edward Island", "lat": 46.4333, "lon": -62.85},
    {"id": "01650", "name": "Souris", "province": "Prince Edward Island", "lat": 46.35, "lon": -62.25},
    {"id": "01935", "name": "St. Peters Bay", "province": "Prince Edward Island", "lat": 46.4333, "lon": -62.7333},
    {"id": "01735", "name": "Summerside", "province": "Prince Edward Island", "lat": 46.3833, "lon": -63.7833},
    {"id": "01875", "name": "Tignish", "province": "Prince Edward Island", "lat": 46.95, "lon": -64},
    {"id": "01715", "name": "Victoria", "province": "Prince Edward Island", "lat": 46.2167, "lon": -63.5},
    {"id": "01845", "name": "West Point", "province": "Prince Edward Island", "lat": 46.6167, "lon": -64.3833},
    {"id": "01680", "name": "Wood Islands", "province": "Prince Edward Island", "lat": 45.95, "lon": -62.7333},
    {"id": "04538", "name": "Akulivik", "province": "Quebec", "lat": 60.8, "lon": -78.2167},
    {"id": "02295", "name": "Anse-à-Beaufils", "province": "Quebec", "lat": 48.472, "lon": -64.3086},
    {"id": "02314", "name": "Anse-à-Brillant", "province": "Quebec", "lat": 48.7207, "lon": -64.2906},
    {"id": "02335", "name": "Anse-à-Valleau", "province": "Quebec", "lat": 49.0833, "lon": -64.5333},
    {"id": "02581", "name": "Baie Chevalier", "province": "Quebec", "lat": 51.4325, "lon": -57.6385},
    {"id": "02840", "name": "Baie-Comeau", "province": "Quebec", "lat": 49.2333, "lon": -68.1333},
    {"id": "02556", "name": "Baie-des-Moutons", "province": "Quebec", "lat": 50.7667, "lon": -59.0333},
    {"id": "02415", "name": "Baie-du-Renard", "province": "Quebec", "lat": 49.2817, "lon": -61.834},
    {"id": "02490", "name": "Baie-Johan-Beetz", "province": "Quebec", "lat": 50.2833, "lon": -62.8},
    {"id": "02815", "name": "Baie-Trinité", "province": "Quebec", "lat": 49.4233, "lon": -67.2897},
    {"id": "03075", "name": "Banc du Cap Brulé", "province": "Quebec", "lat": 46.9157, "lon": -70.8965},
    {"id": "03345", "name": "Batiscan", "province": "Quebec", "lat": 46.5, "lon": -72.25},
    {"id": "04275", "name": "Beacon Isle Ungava", "province": "Quebec", "lat": 58.9002, "lon": -66.3348},
    {"id": "03353", "name": "Bécancour", "province": "Quebec", "lat": 46.4003, "lon": -72.3795},
    {"id": "03200", "name": "Berthier-sur-Mer", "province": "Quebec", "lat": 46.9333, "lon": -70.7333},
    {"id": "02995", "name": "Bic", "province": "Quebec", "lat": 48.3833, "lon": -68.7333},
    {"id": "02588", "name": "Blanc-Sablon", "province": "Quebec", "lat": 51.4167, "lon": -57.15},
    {"id": "02230", "name": "Bonaventure", "province": "Quebec", "lat": 48.0333, "lon": -65.4833},
    {"id": "03337", "name": "Brickyard", "province": "Quebec", "lat": 46.55, "lon": -72.15},
    {"id": "03060", "name": "Cap-aux-Corbeaux", "province": "Quebec", "lat": 47.4333, "lon": -70.45},
    {"id": "01970", "name": "Cap-aux-Meules", "province": "Quebec", "lat": 47.3833, "lon": -61.8667},
    {"id": "03052", "name": "Cap-aux-Oies", "province": "Quebec", "lat": 47.4833, "lon": -70.2333},
    {"id": "02940", "name": "Cap-Chat", "province": "Quebec", "lat": 49.1, "lon": -66.75},
    {"id": "02290", "name": "Cap d´Espoir", "province": "Quebec", "lat": 48.4167, "lon": -64.3333},
    {"id": "02200", "name": "Carleton", "province": "Quebec", "lat": 48.1, "lon": -66.1333},
    {"id": "03350", "name": "Champlain", "province": "Quebec", "lat": 46.4333, "lon": -72.35},
    {"id": "02269", "name": "Chandler", "province": "Quebec", "lat": 48.3461, "lon": -64.6582},
    {"id": "03122", "name": "Chenal de l'île Verte", "province": "Quebec", "lat": 48.0167, "lon": -69.4},
    {"id": "03480", "name": "Chicoutimi", "province": "Quebec", "lat": 48.4333, "lon": -71.0833},
    {"id": "02340", "name": "Cloridorme", "province": "Quebec", "lat": 49.1833, "lon": -64.8333},
    {"id": "15780", "name": "Contrecoeur", "province": "Quebec", "lat": 45.8327, "lon": -73.2832},
    {"id": "03335", "name": "Deschaillons", "province": "Quebec", "lat": 46.5667, "lon": -72.1},
    {"id": "04710", "name": "Eastmain", "province": "Quebec", "lat": 52.25, "lon": -78.55},
    {"id": "01990", "name": "Étang-du-Nord", "province": "Quebec", "lat": 47.3667, "lon": -61.9667},
    {"id": "02880", "name": "Forestville", "province": "Quebec", "lat": 48.7333, "lon": -69.05},
    {"id": "02253", "name": "Gascons", "province": "Quebec", "lat": 48.1833, "lon": -64.8667},
    {"id": "02319", "name": "Gaspé (Sandy Beach}", "province": "Quebec", "lat": 48.8333, "lon": -64.45},
    {"id": "02530", "name": "Gethsémani", "province": "Quebec", "lat": 50.2167, "lon": -60.6833},
    {"id": "02826", "name": "Godbout", "province": "Quebec", "lat": 49.3167, "lon": -67.6},
    {"id": "03466", "name": "Grande-Anse", "province": "Quebec", "lat": 48.4017, "lon": -70.8328},
    {"id": "01985", "name": "Grande-Entrée", "province": "Quebec", "lat": 47.55, "lon": -61.55},
    {"id": "03150", "name": "Grande Île", "province": "Quebec", "lat": 47.6167, "lon": -69.8667},
    {"id": "02279", "name": "Grande-Rivière", "province": "Quebec", "lat": 48.4, "lon": -64.5},
    {"id": "02350", "name": "Grande-Vallée", "province": "Quebec", "lat": 49.2333, "lon": -65.1333},
    {"id": "03325", "name": "Grondines", "province": "Quebec", "lat": 46.5833, "lon": -72.0333},
    {"id": "03125", "name": "Gros-Cacouna", "province": "Quebec", "lat": 47.9167, "lon": -69.5167},
    {"id": "02550", "name": "Harrington Harbour", "province": "Quebec", "lat": 50.5, "lon": -59.4833},
    {"id": "01964", "name": "Havre-Aubert", "province": "Quebec", "lat": 47.2333, "lon": -61.8333},
    {"id": "01976", "name": "Havre-aux-Maisons", "province": "Quebec", "lat": 47.4053, "lon": -61.836},
    {"id": "02480", "name": "Havre-Saint-Pierre", "province": "Quebec", "lat": 50.2333, "lon": -63.6},
    {"id": "03180", "name": "Ile aux Grues", "province": "Quebec", "lat": 47.055, "lon": -70.5315},
    {"id": "03140", "name": "Ile aux Lièvres", "province": "Quebec", "lat": 47.9, "lon": -69.6833},
    {"id": "04345", "name": "Ile Basking", "province": "Quebec", "lat": 59.983, "lon": -70.083},
    {"id": "03000", "name": "Île Biquette", "province": "Quebec", "lat": 48.4155, "lon": -68.8933},
    {"id": "01966", "name": "Ile d'Entrée", "province": "Quebec", "lat": 47.2833, "lon": -61.7167},
    {"id": "02580", "name": "Île des Esquimaux", "province": "Quebec", "lat": 51.4167, "lon": -57.7},
    {"id": "04340", "name": "Ile Pikiyulik", "province": "Quebec", "lat": 60, "lon": -69.916},
    {"id": "03120", "name": "Ile Verte", "province": "Quebec", "lat": 48.05, "lon": -69.4167},
    {"id": "03251", "name": "Immigration Wharf", "province": "Quebec", "lat": 46.8, "lon": -71.2333},
    {"id": "04575", "name": "Inukjuak", "province": "Quebec", "lat": 58.45, "lon": -78.1},
    {"id": "04279", "name": "Kangiqsualujjuaq", "province": "Quebec", "lat": 58.683, "lon": -65.95},
    {"id": "02518", "name": "Kegashka", "province": "Quebec", "lat": 50.1833, "lon": -61.2667},
    {"id": "04296", "name": "Koksoak Narrows", "province": "Quebec", "lat": 58.3967, "lon": -68.2122},
    {"id": "04298", "name": "Kuujjuaq", "province": "Quebec", "lat": 58.1, "lon": -68.3167},
    {"id": "04645", "name": "Kuujjuarapik", "province": "Quebec", "lat": 55.2667, "lon": -77.7667},
    {"id": "04315", "name": "Lac aux Feuilles", "province": "Quebec", "lat": 58.7333, "lon": -69.8333},
    {"id": "15975", "name": "Lac Saint-Pierre", "province": "Quebec", "lat": 46.1948, "lon": -72.8955},
    {"id": "04680", "name": "La Grande Rivière", "province": "Quebec", "lat": 53.8333, "lon": -79.0333},
    {"id": "03190", "name": "La Grosse Île", "province": "Quebec", "lat": 47.0167, "lon": -70.6667},
    {"id": "02558", "name": "La Tabatière", "province": "Quebec", "lat": 50.8333, "lon": -58.9667},
    {"id": "02945", "name": "Le Gros-Méchins", "province": "Quebec", "lat": 49, "lon": -66.9833},
    {"id": "03145", "name": "Le Petit Pélerin", "province": "Quebec", "lat": 47.7, "lon": -69.7667},
    {"id": "02900", "name": "Les Escoumins", "province": "Quebec", "lat": 48.35, "lon": -69.3833},
    {"id": "01987", "name": "Leslie", "province": "Quebec", "lat": 47.6167, "lon": -61.5167},
    {"id": "03175", "name": "L´Islet-sur-Mer", "province": "Quebec", "lat": 47.1333, "lon": -70.3667},
    {"id": "04297", "name": "Mackays Island", "province": "Quebec", "lat": 58.2604, "lon": -68.2663},
    {"id": "02309", "name": "Mal-Bay", "province": "Quebec", "lat": 48.4833, "lon": -64.5167},
    {"id": "02955", "name": "Matane", "province": "Quebec", "lat": 48.85, "lon": -67.5333},
    {"id": "02583", "name": "Middle-Bay", "province": "Quebec", "lat": 51.4649, "lon": -57.4841},
    {"id": "02196", "name": "Miguasha", "province": "Quebec", "lat": 48.0988, "lon": -66.3468},
    {"id": "01960", "name": "Millerand", "province": "Quebec", "lat": 47.2167, "lon": -61.9833},
    {"id": "01988", "name": "Mine Seleine", "province": "Quebec", "lat": 47.6167, "lon": -61.5667},
    {"id": "02470", "name": "Mingan", "province": "Quebec", "lat": 50.2833, "lon": -64.0167},
    {"id": "02920", "name": "Mont-Louis", "province": "Quebec", "lat": 49.2333, "lon": -65.7333},
    {"id": "03095", "name": "Montmorency", "province": "Quebec", "lat": 46.8833, "lon": -71.15},
    {"id": "15540", "name": "Montréal-Frontenac", "province": "Quebec", "lat": 45.5287, "lon": -73.5425},
    {"id": "15520", "name": "Montréal-Jetée no.1", "province": "Quebec", "lat": 45.5035, "lon": -73.5525},
    {"id": "03304", "name": "Moulin à Blé", "province": "Quebec", "lat": 46.65, "lon": -71.9},
    {"id": "02510", "name": "Natashquan", "province": "Quebec", "lat": 50.1833, "lon": -61.8333},
    {"id": "03280", "name": "Neuville", "province": "Quebec", "lat": 46.7, "lon": -71.5667},
    {"id": "02260", "name": "Newport", "province": "Quebec", "lat": 47.2843, "lon": -64.7193},
    {"id": "01986", "name": "Old Harry", "province": "Quebec", "lat": 47.5667, "lon": -61.4667},
    {"id": "02235", "name": "Paspébiac", "province": "Quebec", "lat": 48.0167, "lon": -65.2333},
    {"id": "02980", "name": "Pointe-au-Père", "province": "Quebec", "lat": 48.5167, "lon": -68.4667},
    {"id": "03045", "name": "Pointe-au-Pic", "province": "Quebec", "lat": 47.6167, "lon": -70.05},
    {"id": "03295", "name": "Pointe-au-Platon", "province": "Quebec", "lat": 46.6667, "lon": -71.85},
    {"id": "02975", "name": "Pointe-aux-Cenelles", "province": "Quebec", "lat": 47.0167, "lon": -70.6667},
    {"id": "03160", "name": "Pointe-aux-Orignaux", "province": "Quebec", "lat": 47.4833, "lon": -70.0333},
    {"id": "01981", "name": "Pointe-Basse", "province": "Quebec", "lat": 47.3833, "lon": -61.7833},
    {"id": "15330", "name": "Pointe-Claire", "province": "Quebec", "lat": 45.4277, "lon": -73.8207},
    {"id": "02375", "name": "Pointe du Sud-Ouest", "province": "Quebec", "lat": 49.4, "lon": -63.6},
    {"id": "02410", "name": "Pointe Heath", "province": "Quebec", "lat": 49.0833, "lon": -61.7},
    {"id": "02215", "name": "Pointe Howatson", "province": "Quebec", "lat": 48.1333, "lon": -65.8333},
    {"id": "02460", "name": "Pointe-Nord", "province": "Quebec", "lat": 49.95, "lon": -64.15},
    {"id": "02310", "name": "Pointe-Saint-Pierre", "province": "Quebec", "lat": 48.6333, "lon": -64.1667},
    {"id": "03265", "name": "Pont de Québec", "province": "Quebec", "lat": 46.7458, "lon": -71.2878},
    {"id": "03460", "name": "Port-Alfred", "province": "Quebec", "lat": 48.3333, "lon": -70.8667},
    {"id": "02790", "name": "Port-Cartier", "province": "Quebec", "lat": 50.0333, "lon": -66.7833},
    {"id": "02250", "name": "Port-Daniel", "province": "Quebec", "lat": 48.1833, "lon": -64.95},
    {"id": "02360", "name": "Port-Menier", "province": "Quebec", "lat": 49.8167, "lon": -64.3667},
    {"id": "03300", "name": "Portneuf", "province": "Quebec", "lat": 46.6833, "lon": -71.8833},
    {"id": "03365", "name": "Port Saint-François", "province": "Quebec", "lat": 46.2725, "lon": -72.6193},
    {"id": "03264", "name": "Quai Irving", "province": "Quebec", "lat": 46.75, "lon": -71.2667},
    {"id": "04379", "name": "Quaqtaq", "province": "Quebec", "lat": 61.05, "lon": -69.6333},
    {"id": "03250", "name": "Québec (Lauzon}", "province": "Quebec", "lat": 46.8333, "lon": -71.1667},
    {"id": "02985", "name": "Rimouski", "province": "Quebec", "lat": 48.4783, "lon": -68.5137},
    {"id": "02330", "name": "Rivière-au-Renard", "province": "Quebec", "lat": 49, "lon": -64.3833},
    {"id": "02750", "name": "Rivière-au-Tonnerre", "province": "Quebec", "lat": 50.2833, "lon": -64.7833},
    {"id": "03130", "name": "Rivière-du-Loup", "province": "Quebec", "lat": 47.85, "lon": -69.5667},
    {"id": "04295", "name": "Rivière Koksoak", "province": "Quebec", "lat": 58.5333, "lon": -68.2},
    {"id": "03071", "name": "Rocher Neptune", "province": "Quebec", "lat": 47.1617, "lon": -70.6075},
    {"id": "04662", "name": "Roggan River", "province": "Quebec", "lat": 54.383, "lon": -79.5},
    {"id": "02564", "name": "Saint-Augustin", "province": "Quebec", "lat": 51.1667, "lon": -58.5333},
    {"id": "03087", "name": "Sainte-Anne-de-Beaupré", "province": "Quebec", "lat": 47.0167, "lon": -70.9333},
    {"id": "16005", "name": "Sainte-Anne-de-Bellevue", "province": "Quebec", "lat": 45.4047, "lon": -73.9563},
    {"id": "02883", "name": "Sainte-Anne-de-Portneuf", "province": "Quebec", "lat": 48.6333, "lon": -69.0833},
    {"id": "02935", "name": "Sainte-Anne-des-Monts", "province": "Quebec", "lat": 49.1333, "lon": -66.4833},
    {"id": "03100", "name": "Saint-François I.O.", "province": "Quebec", "lat": 47, "lon": -70.8167},
    {"id": "02240", "name": "Saint-Godefroi", "province": "Quebec", "lat": 48.0333, "lon": -65.1},
    {"id": "03048", "name": "Saint-Irénée", "province": "Quebec", "lat": 47.5167, "lon": -70.1667},
    {"id": "03105", "name": "Saint-Jean I.O.", "province": "Quebec", "lat": 46.9167, "lon": -70.9},
    {"id": "03170", "name": "Saint-Jean-Port-Joli", "province": "Quebec", "lat": 47.2167, "lon": -70.2667},
    {"id": "03080", "name": "Saint-Joachim", "province": "Quebec", "lat": 47.05, "lon": -70.85},
    {"id": "03057", "name": "Saint-Joseph-de-la-Rive", "province": "Quebec", "lat": 47.45, "lon": -70.3667},
    {"id": "03110", "name": "Saint-Laurent I.O.", "province": "Quebec", "lat": 46.8667, "lon": -71},
    {"id": "03270", "name": "Saint-Nicolas", "province": "Quebec", "lat": 46.7167, "lon": -71.3833},
    {"id": "03260", "name": "Saint-Romuald", "province": "Quebec", "lat": 46.7667, "lon": -71.2333},
    {"id": "03030", "name": "Saint-Siméon", "province": "Quebec", "lat": 47.8333, "lon": -69.8667},
    {"id": "04470", "name": "Salluit", "province": "Quebec", "lat": 62.2167, "lon": -75.65},
    {"id": "03070", "name": "Sault-au-Cochon", "province": "Quebec", "lat": 47.2, "lon": -70.6333},
    {"id": "02780", "name": "Sept-Îles", "province": "Quebec", "lat": 50.2167, "lon": -66.4},
    {"id": "15930", "name": "Sorel", "province": "Quebec", "lat": 46.0472, "lon": -73.1157},
    {"id": "03058", "name": "St-Bernard-Ile-aux-Coudres", "province": "Quebec", "lat": 47.45, "lon": -70.3667},
    {"id": "02285", "name": "Ste-Thérèse-de-Gaspé", "province": "Quebec", "lat": 48.415, "lon": -64.3952},
    {"id": "04400", "name": "Stupart Bay", "province": "Quebec", "lat": 61.583, "lon": -71.533},
    {"id": "03425", "name": "Tadoussac", "province": "Quebec", "lat": 48.1333, "lon": -69.7167},
    {"id": "02554", "name": "Tête-à-la-Baleine", "province": "Quebec", "lat": 50.6833, "lon": -59.2333},
    {"id": "03166", "name": "Traverse Saint-Roch", "province": "Quebec", "lat": 47.4, "lon": -70.2333},
    {"id": "03005", "name": "Trois-Pistoles", "province": "Quebec", "lat": 48.1333, "lon": -69.1833},
    {"id": "03360", "name": "Trois-Rivières", "province": "Quebec", "lat": 46.3333, "lon": -72.55},
    {"id": "15660", "name": "Varennes", "province": "Quebec", "lat": 45.6843, "lon": -73.4437},
    {"id": "02577", "name": "Vieux Fort", "province": "Quebec", "lat": 51.4218, "lon": -57.8145},
    {"id": "03248", "name": "Vieux-Québec", "province": "Quebec", "lat": 46.8111, "lon": -71.2019},
    {"id": "06515", "name": "Kay point", "province": "Yukon", "lat": 69.283, "lon": -138.433}
]}
